{"0":{"tel":"용인시 동물보호센터","location":"031-324-3463","name":"경기도 용인시 처인구 중부대로 1074-1 (삼가동) 용인시 동물보호센터","latitude":37.2433128,"longitude":127.1593393},"1":{"tel":"양산시 동물보호센터","location":"055-392-5669","name":"경상남도 양산시 동면 석산리 392 양산시농업기술센터","latitude":35.3244546,"longitude":129.0339939},"2":{"tel":"경산시유기동물보호소","location":"010-2536-0955","name":"경상북도 경산시 용성면 사양지길 95 (용성면)","latitude":35.7778815,"longitude":128.8855551},"3":{"tel":"울산유기동물보호센터","location":"052-238-6113","name":"울산광역시 울주군 온양읍 발리 1144","latitude":35.3911974,"longitude":129.2857055},"4":{"tel":"울산유기동물보호센터","location":"052-238-6113","name":"울산광역시 울주군 온양읍 화산발리로 543","latitude":35.3911333,"longitude":129.2858282},"5":{"tel":"신영재동물병원","location":"032-552-0075","name":"인천광역시 계양구 장제로 923 (병방동)","latitude":37.5488676,"longitude":126.7414359},"6":{"tel":"신영재동물병원","location":"032-552-0075","name":"인천광역시 계양구 장제로 923 (병방동)","latitude":37.5488676,"longitude":126.7414359},"7":{"tel":"진주시유기동물보호소","location":"055-749-6134","name":"경상남도 진주시 집현면 신당길207번길 22 (집현면, 지역농업개발시설)","latitude":35.2266972,"longitude":128.1215889},"8":{"tel":"장성군동물보호센터","location":"010-6271-8889","name":"전라남도 장성군 삼서면 대중길 29-27","latitude":35.2415511,"longitude":126.6105723},"9":{"tel":"장성군동물보호센터","location":"010-6271-8889","name":"전라남도 장성군 삼서면 대중길 29-27","latitude":35.2415511,"longitude":126.6105723},"10":{"tel":"장성군동물보호센터","location":"010-6271-8889","name":"전라남도 장성군 삼서면 대중길 29-27","latitude":35.2415511,"longitude":126.6105723},"11":{"tel":"장성군동물보호센터","location":"010-6271-8889","name":"전라남도 장성군 삼서면 대중길 29-27","latitude":35.2415511,"longitude":126.6105723},"12":{"tel":"장성군동물보호센터","location":"010-6271-8889","name":"전라남도 장성군 삼서면 대중길 29-27","latitude":35.2415511,"longitude":126.6105723},"13":{"tel":"장성군동물보호센터","location":"010-6271-8889","name":"전라남도 장성군 삼서면 대중길 29-27","latitude":35.2415511,"longitude":126.6105723},"14":{"tel":"장성군동물보호센터","location":"010-6271-8889","name":"전라남도 장성군 삼서면 대중길 29-27","latitude":35.2415511,"longitude":126.6105723},"15":{"tel":"장성군동물보호센터","location":"010-6271-8889","name":"전라남도 장성군 삼서면 대중길 29-27","latitude":35.2415511,"longitude":126.6105723},"16":{"tel":"장성군동물보호센터","location":"010-6271-8889","name":"전라남도 장성군 삼서면 대중길 29-27","latitude":35.2415511,"longitude":126.6105723},"17":{"tel":"장성군동물보호센터","location":"010-6271-8889","name":"전라남도 장성군 삼서면 대중길 29-27","latitude":35.2415511,"longitude":126.6105723},"18":{"tel":"장성군동물보호센터","location":"010-6271-8889","name":"전라남도 장성군 삼서면 대중길 29-27","latitude":35.2415511,"longitude":126.6105723},"19":{"tel":"장성군동물보호센터","location":"010-6271-8889","name":"전라남도 장성군 삼서면 대중길 29-27","latitude":35.2415511,"longitude":126.6105723},"20":{"tel":"장성군동물보호센터","location":"010-6271-8889","name":"전라남도 장성군 삼서면 대중길 29-27","latitude":35.2415511,"longitude":126.6105723},"21":{"tel":"장성군동물보호센터","location":"010-6271-8889","name":"전라남도 장성군 삼서면 대중길 29-27","latitude":35.2415511,"longitude":126.6105723},"22":{"tel":"장성군동물보호센터","location":"010-6271-8889","name":"전라남도 장성군 삼서면 대중길 29-27","latitude":35.2415511,"longitude":126.6105723},"23":{"tel":"장성군동물보호센터","location":"010-6271-8889","name":"전라남도 장성군 삼서면 대중길 29-27","latitude":35.2415511,"longitude":126.6105723},"24":{"tel":"장성군동물보호센터","location":"010-6271-8889","name":"전라남도 장성군 삼서면 대중길 29-27","latitude":35.2415511,"longitude":126.6105723},"25":{"tel":"장성군동물보호센터","location":"010-6271-8889","name":"전라남도 장성군 삼서면 대중길 29-27","latitude":35.2415511,"longitude":126.6105723},"26":{"tel":"장성군동물보호센터","location":"010-6271-8889","name":"전라남도 장성군 삼서면 대중길 29-27","latitude":35.2415511,"longitude":126.6105723},"27":{"tel":"장성군동물보호센터","location":"010-6271-8889","name":"전라남도 장성군 삼서면 대중길 29-27","latitude":35.2415511,"longitude":126.6105723},"28":{"tel":"장성군동물보호센터","location":"010-6271-8889","name":"전라남도 장성군 삼서면 대중길 29-27","latitude":35.2415511,"longitude":126.6105723},"29":{"tel":"장성군동물보호센터","location":"010-6271-8889","name":"전라남도 장성군 삼서면 대중길 29-27","latitude":35.2415511,"longitude":126.6105723},"30":{"tel":"장성군동물보호센터","location":"010-6271-8889","name":"전라남도 장성군 삼서면 대중길 29-27","latitude":35.2415511,"longitude":126.6105723},"31":{"tel":"장성군동물보호센터","location":"010-6271-8889","name":"전라남도 장성군 삼서면 대중길 29-27","latitude":35.2415511,"longitude":126.6105723},"32":{"tel":"장성군동물보호센터","location":"010-6271-8889","name":"전라남도 장성군 삼서면 대중길 29-27","latitude":35.2415511,"longitude":126.6105723},"33":{"tel":"장성군동물보호센터","location":"010-6271-8889","name":"전라남도 장성군 삼서면 대중길 29-27","latitude":35.2415511,"longitude":126.6105723},"34":{"tel":"장성군동물보호센터","location":"010-6271-8889","name":"전라남도 장성군 삼서면 대중길 29-27","latitude":35.2415511,"longitude":126.6105723},"35":{"tel":"장성군동물보호센터","location":"010-6271-8889","name":"전라남도 장성군 삼서면 대중길 29-27","latitude":35.2415511,"longitude":126.6105723},"36":{"tel":"장성군동물보호센터","location":"010-6271-8889","name":"전라남도 장성군 삼서면 대중길 29-27","latitude":35.2415511,"longitude":126.6105723},"37":{"tel":"장성군동물보호센터","location":"010-6271-8889","name":"전라남도 장성군 삼서면 대중길 29-27","latitude":35.2415511,"longitude":126.6105723},"38":{"tel":"장성군동물보호센터","location":"010-6271-8889","name":"전라남도 장성군 삼서면 대중길 29-27","latitude":35.2415511,"longitude":126.6105723},"39":{"tel":"장성군동물보호센터","location":"010-6271-8889","name":"전라남도 장성군 삼서면 대중길 29-27","latitude":35.2415511,"longitude":126.6105723},"40":{"tel":"장성군동물보호센터","location":"010-6271-8889","name":"전라남도 장성군 삼서면 대중길 29-27","latitude":35.2415511,"longitude":126.6105723},"41":{"tel":"장성군동물보호센터","location":"010-6271-8889","name":"전라남도 장성군 삼서면 대중길 29-27","latitude":35.2415511,"longitude":126.6105723},"42":{"tel":"임실유기동물보호센터","location":"063-640-2516","name":"전라북도 임실군 오수면 춘향로 1554-95  펫추모공원 입구, 유기동물보호센터","latitude":35.5394809,"longitude":127.3485286},"43":{"tel":"임실유기동물보호센터","location":"063-640-2516","name":"전라북도 임실군 오수면 춘향로 1554-95  펫추모공원 입구, 유기동물보호센터","latitude":35.5394809,"longitude":127.3485286},"44":{"tel":"속초시유기동물보호소","location":"033-636-2519","name":"강원도 속초시 하도문길 103 (대포동)","latitude":38.16919,"longitude":128.5988785},"45":{"tel":"춘천시 동물보호센터","location":"033-245-5351","name":"강원도 춘천시 신북읍 영서로 3282 (신북읍) (전)102보충대 주차장","latitude":37.9416029,"longitude":127.7123024},"46":{"tel":"춘천시 동물보호센터","location":"033-245-5351","name":"강원도 춘천시 신북읍 영서로 3282 (신북읍) (전)102보충대 주차장","latitude":37.9416029,"longitude":127.7123024},"47":{"tel":"로뎀동물병원","location":"031-952-7576","name":"경기도 파주시 문산읍 방촌로 1636 (문산읍, 강산설렁탕)","latitude":37.8606331,"longitude":126.7781645},"48":{"tel":"담양군 동물보호센터","location":"010-3604-1338","name":"전라남도 담양군 용면 시암골로 280-57 (용면) :용면 두장리 21번지","latitude":35.3585662,"longitude":127.0015732},"49":{"tel":"양산시 동물보호센터","location":"055-392-5669","name":"경상남도 양산시 동면 석산리 392 양산시농업기술센터","latitude":35.3244546,"longitude":129.0339939},"50":{"tel":"울산유기동물보호센터","location":"052-238-6113","name":"울산광역시 울주군 온양읍 발리 1144","latitude":35.3911974,"longitude":129.2857055},"51":{"tel":"부산동물보호센터","location":"051-832-7119","name":"부산광역시 강서구 맥도강변길 752-15 (대저2동)","latitude":35.1514439,"longitude":128.9396236},"52":{"tel":"순천시유기동물보호소","location":"061-749-8793","name":"전라남도 순천시 승주읍 승주로 628 (승주읍, 농업기술센터) 순천시유기동물보호소","latitude":35.0158098,"longitude":127.3794198},"53":{"tel":"강릉시 동물사랑센터","location":"033-641-7515","name":"강원도 강릉시 성산면 내맬길 172","latitude":37.6988768,"longitude":128.8292631},"54":{"tel":"광주 동물보호소","location":"062-571-2808","name":"광주광역시 북구 본촌마을길 27 (본촌동) 광주광역시 동물보호소","latitude":35.2224767,"longitude":126.8817582},"55":{"tel":"창원유기동물보호소","location":"055-225-5481","name":"경상남도 창원시 의창구 창이대로 71 (명서동, 창원시농업기술센터) 축산과","latitude":35.239026,"longitude":128.646613},"56":{"tel":"통영시동물보호센터","location":"055-650-6253","name":"경상남도 통영시 광도면 전두1길 9-8","latitude":34.9044045,"longitude":128.4044296},"57":{"tel":"거제시유기동물보호소","location":"055-639-6368","name":"경상남도 거제시 사등면 두동로1길 109 (사등면, 한국자원재생공사폐비닐적재장) 거제시유기동물보호소","latitude":34.8837564,"longitude":128.5736846},"58":{"tel":"거제시유기동물보호소","location":"055-639-6368","name":"경상남도 거제시 사등면 두동로1길 109 (사등면, 한국자원재생공사폐비닐적재장) 거제시유기동물보호소","latitude":34.8837564,"longitude":128.5736846},"59":{"tel":"거제시유기동물보호소","location":"055-639-6368","name":"경상남도 거제시 사등면 두동로1길 109 (사등면, 한국자원재생공사폐비닐적재장) 거제시유기동물보호소","latitude":34.8837564,"longitude":128.5736846},"60":{"tel":"거제시유기동물보호소","location":"055-639-6368","name":"경상남도 거제시 사등면 두동로1길 109 (사등면, 한국자원재생공사폐비닐적재장) 거제시유기동물보호소","latitude":34.8837564,"longitude":128.5736846},"61":{"tel":"광주 동물보호소","location":"062-571-2808","name":"광주광역시 북구 본촌마을길 27 (본촌동) 광주광역시 동물보호소","latitude":35.2224767,"longitude":126.8817582},"62":{"tel":"담양군 동물보호센터","location":"010-3604-1338","name":"전라남도 담양군 용면 시암골로 280-57 (용면) :용면 두장리 21번지","latitude":35.3585662,"longitude":127.0015732},"63":{"tel":"광주 동물보호소","location":"062-571-2808","name":"광주광역시 북구 본촌마을길 27 (본촌동) 광주광역시 동물보호소","latitude":35.2224767,"longitude":126.8817582},"64":{"tel":"광주 동물보호소","location":"062-571-2808","name":"광주광역시 북구 본촌마을길 27 (본촌동) 광주광역시 동물보호소","latitude":35.2224767,"longitude":126.8817582},"65":{"tel":"정읍시 동물보호소","location":"063-535-6295","name":"전라북도 정읍시 2산단5길 37-1 (하북동)","latitude":35.5913486,"longitude":126.8735355},"66":{"tel":"정읍시 동물보호소","location":"063-535-6295","name":"전라북도 정읍시 2산단5길 37-1 (하북동)","latitude":35.5913486,"longitude":126.8735355},"67":{"tel":"정읍시 동물보호소","location":"063-535-6295","name":"전라북도 정읍시 2산단5길 37-1 (하북동)","latitude":35.5913486,"longitude":126.8735355},"68":{"tel":"옥천동물병원","location":"010-8843-8844","name":"충청북도 옥천군 옥천읍 삼금로 53 (옥천읍, 동물병원) 옥천동물병원","latitude":36.3030442,"longitude":127.5687869},"69":{"tel":"옥천동물병원","location":"010-8843-8844","name":"충청북도 옥천군 옥천읍 삼금로 53 (옥천읍, 동물병원) 옥천동물병원","latitude":36.3030442,"longitude":127.5687869},"70":{"tel":"옥천동물병원","location":"010-8843-8844","name":"충청북도 옥천군 옥천읍 삼금로 53 (옥천읍, 동물병원) 옥천동물병원","latitude":36.3030442,"longitude":127.5687869},"71":{"tel":"옥천동물병원","location":"010-8843-8844","name":"충청북도 옥천군 옥천읍 삼금로 53 (옥천읍, 동물병원) 옥천동물병원","latitude":36.3030442,"longitude":127.5687869},"72":{"tel":"옥천동물병원","location":"010-8843-8844","name":"충청북도 옥천군 옥천읍 삼금로 53 (옥천읍, 동물병원) 옥천동물병원","latitude":36.3030442,"longitude":127.5687869},"73":{"tel":"옥천동물병원","location":"010-8843-8844","name":"충청북도 옥천군 옥천읍 삼금로 53 (옥천읍, 동물병원) 옥천동물병원","latitude":36.3030442,"longitude":127.5687869},"74":{"tel":"옥천동물병원","location":"010-8843-8844","name":"충청북도 옥천군 옥천읍 삼금로 53 (옥천읍, 동물병원) 옥천동물병원","latitude":36.3030442,"longitude":127.5687869},"75":{"tel":"옥천동물병원","location":"010-8843-8844","name":"충청북도 옥천군 옥천읍 삼금로 53 (옥천읍, 동물병원) 옥천동물병원","latitude":36.3030442,"longitude":127.5687869},"76":{"tel":"옥천동물병원","location":"010-8843-8844","name":"충청북도 옥천군 옥천읍 삼금로 53 (옥천읍, 동물병원) 옥천동물병원","latitude":36.3030442,"longitude":127.5687869},"77":{"tel":"옥천동물병원","location":"010-8843-8844","name":"충청북도 옥천군 옥천읍 삼금로 53 (옥천읍, 동물병원) 옥천동물병원","latitude":36.3030442,"longitude":127.5687869},"78":{"tel":"옥천동물병원","location":"010-8843-8844","name":"충청북도 옥천군 옥천읍 삼금로 53 (옥천읍, 동물병원) 옥천동물병원","latitude":36.3030442,"longitude":127.5687869},"79":{"tel":"옥천동물병원","location":"010-8843-8844","name":"충청북도 옥천군 옥천읍 삼금로 53 (옥천읍, 동물병원) 옥천동물병원","latitude":36.3030442,"longitude":127.5687869},"80":{"tel":"옥천동물병원","location":"010-8843-8844","name":"충청북도 옥천군 옥천읍 삼금로 53 (옥천읍, 동물병원) 옥천동물병원","latitude":36.3030442,"longitude":127.5687869},"81":{"tel":"옥천동물병원","location":"010-8843-8844","name":"충청북도 옥천군 옥천읍 삼금로 53 (옥천읍, 동물병원) 옥천동물병원","latitude":36.3030442,"longitude":127.5687869},"82":{"tel":"옥천동물병원","location":"010-8843-8844","name":"충청북도 옥천군 옥천읍 삼금로 53 (옥천읍, 동물병원) 옥천동물병원","latitude":36.3030442,"longitude":127.5687869},"83":{"tel":"옥천동물병원","location":"010-8843-8844","name":"충청북도 옥천군 옥천읍 삼금로 53 (옥천읍, 동물병원) 옥천동물병원","latitude":36.3030442,"longitude":127.5687869},"84":{"tel":"옥천동물병원","location":"010-8843-8844","name":"충청북도 옥천군 옥천읍 삼금로 53 (옥천읍, 동물병원) 옥천동물병원","latitude":36.3030442,"longitude":127.5687869},"85":{"tel":"속초시유기동물보호소","location":"033-636-2519","name":"강원도 속초시 하도문길 103 (대포동)","latitude":38.16919,"longitude":128.5988785},"86":{"tel":"강릉시 동물사랑센터","location":"033-641-7515","name":"강원도 강릉시 성산면 내맬길 172","latitude":37.6988768,"longitude":128.8292631},"87":{"tel":"강릉시 동물사랑센터","location":"033-641-7515","name":"강원도 강릉시 성산면 내맬길 172","latitude":37.6988768,"longitude":128.8292631},"88":{"tel":"평택시유기동물보호소","location":"031-8024-3849","name":"경기도 평택시 진위면 야막길 108-86 (진위면)","latitude":37.1306388,"longitude":127.0554065},"89":{"tel":"평택시유기동물보호소","location":"031-8024-3849","name":"경기도 평택시 진위면 야막길 108-86 (진위면)","latitude":37.1306388,"longitude":127.0554065},"90":{"tel":"담양군 동물보호센터","location":"010-3604-1338","name":"전라남도 담양군 용면 시암골로 280-57 (용면) :용면 두장리 21번지","latitude":35.3585662,"longitude":127.0015732},"91":{"tel":"군산유기동물보호센터","location":"063-451-2975","name":"전라북도 군산시 대야면 보덕안정길 108-20","latitude":35.9607763,"longitude":126.8164012},"92":{"tel":"강릉시 동물사랑센터","location":"033-641-7515","name":"강원도 강릉시 성산면 내맬길 172","latitude":37.6988768,"longitude":128.8292631},"93":{"tel":"경산시유기동물보호소","location":"010-2536-0955","name":"경상북도 경산시 용성면 사양지길 95 (용성면)","latitude":35.7778815,"longitude":128.8855551},"94":{"tel":"경산시유기동물보호소","location":"010-2536-0955","name":"경상북도 경산시 용성면 사양지길 95 (용성면)","latitude":35.7778815,"longitude":128.8855551},"95":{"tel":"경산시유기동물보호소","location":"010-2536-0955","name":"경상북도 경산시 용성면 사양지길 95 (용성면)","latitude":35.7778815,"longitude":128.8855551},"96":{"tel":"경산시유기동물보호소","location":"010-2536-0955","name":"경상북도 경산시 용성면 사양지길 95 (용성면)","latitude":35.7778815,"longitude":128.8855551},"97":{"tel":"경산시유기동물보호소","location":"010-2536-0955","name":"경상북도 경산시 용성면 사양지길 95 (용성면)","latitude":35.7778815,"longitude":128.8855551},"98":{"tel":"경산시유기동물보호소","location":"010-2536-0955","name":"경상북도 경산시 용성면 사양지길 95 (용성면)","latitude":35.7778815,"longitude":128.8855551},"99":{"tel":"경산시유기동물보호소","location":"010-2536-0955","name":"경상북도 경산시 용성면 사양지길 95 (용성면)","latitude":35.7778815,"longitude":128.8855551},"100":{"tel":"경산시유기동물보호소","location":"010-2536-0955","name":"경상북도 경산시 용성면 사양지길 95 (용성면)","latitude":35.7778815,"longitude":128.8855551},"101":{"tel":"통영시동물보호센터","location":"055-650-6253","name":"경상남도 통영시 광도면 전두1길 9-8","latitude":34.9044045,"longitude":128.4044296},"102":{"tel":"통영시동물보호센터","location":"055-650-6253","name":"경상남도 통영시 광도면 전두1길 9-8","latitude":34.9044045,"longitude":128.4044296},"103":{"tel":"익산유기동물보호소","location":"063-855-1214","name":"전라북도 익산시 서동로42길 77 (용제동) 16통 1반","latitude":35.936683,"longitude":127.0024201},"104":{"tel":"울산유기동물보호센터","location":"052-238-6113","name":"울산광역시 울주군 온양읍 화산발리로 543 (온양읍)","latitude":35.3911333,"longitude":129.2858282},"105":{"tel":"성주유기동물보호센터","location":"010-2949-6699","name":"경상북도 성주군 선남면 선노로 522 (선남면)","latitude":35.920597,"longitude":128.394282},"106":{"tel":"경산시유기동물보호소","location":"010-2536-0955","name":"경상북도 경산시 용성면 사양지길 95 (용성면)","latitude":35.7778815,"longitude":128.8855551},"107":{"tel":"상주시 동물보호센터","location":"010-3111-8184","name":"경상북도 상주시 청리면 남상주로 1205-59","latitude":36.3437556,"longitude":128.1307568},"108":{"tel":"상주시 동물보호센터","location":"010-3111-8184","name":"경상북도 상주시 청리면 남상주로 1205-59","latitude":36.3437556,"longitude":128.1307568},"109":{"tel":"순천시유기동물보호소","location":"061-749-8793","name":"전라남도 순천시 승주읍 승주로 628 (승주읍, 농업기술센터) 순천시유기동물보호소","latitude":35.0158098,"longitude":127.3794198},"110":{"tel":"논산시 동물보호센터","location":"041-746-6109","name":"충청남도 논산시 계백로665번길 100 (등화동) 논산시 동물보호센터 더함","latitude":36.1856883,"longitude":127.0585328},"111":{"tel":"옥천동물병원","location":"010-8843-8844","name":"충청북도 옥천군 옥천읍 삼금로 53 (옥천읍, 동물병원) 옥천동물병원","latitude":36.3030442,"longitude":127.5687869},"112":{"tel":"옥천동물병원","location":"010-8843-8844","name":"충청북도 옥천군 옥천읍 삼금로 53 (옥천읍, 동물병원) 옥천동물병원","latitude":36.3030442,"longitude":127.5687869},"113":{"tel":"용인시 동물보호센터","location":"031-324-3463","name":"경기도 용인시 처인구 중부대로 1074-1 (삼가동) 용인시 동물보호센터","latitude":37.2433128,"longitude":127.1593393},"114":{"tel":"장성군동물보호센터","location":"010-6484-2949","name":"전라남도 장성군 삼서면 대중길 29-27","latitude":35.2415511,"longitude":126.6105723},"115":{"tel":"장성군동물보호센터","location":"010-6484-2949","name":"전라남도 장성군 삼서면 대중길 29-27","latitude":35.2415511,"longitude":126.6105723},"116":{"tel":"순천시유기동물보호소","location":"061-749-3094","name":"전라남도 순천시 승주읍 승주로 628 (승주읍, 농업기술센터) 순천시유기동물보호소","latitude":35.0158098,"longitude":127.3794198},"117":{"tel":"별빛유기동물지킴이","location":"010-4137-1009","name":"전라북도 완주군 용진읍 순지2길 187-6","latitude":35.9418888,"longitude":127.1903212},"118":{"tel":"별빛유기동물지킴이","location":"010-4137-1009","name":"전라북도 완주군 용진읍 순지2길 187-6","latitude":35.9418888,"longitude":127.1903212},"119":{"tel":"별빛유기동물지킴이","location":"010-4137-1009","name":"전라북도 완주군 용진읍 순지2길 187-6","latitude":35.9418888,"longitude":127.1903212},"120":{"tel":"강릉시 동물사랑센터","location":"033-641-7515","name":"강원도 강릉시 성산면 내맬길 172","latitude":37.6988768,"longitude":128.8292631},"121":{"tel":"강릉시 동물사랑센터","location":"033-641-7515","name":"강원도 강릉시 성산면 내맬길 172","latitude":37.6988768,"longitude":128.8292631},"122":{"tel":"강릉시 동물사랑센터","location":"033-641-7515","name":"강원도 강릉시 성산면 내맬길 172","latitude":37.6988768,"longitude":128.8292631},"123":{"tel":"춘천시 동물보호센터","location":"033-245-5351","name":"강원도 춘천시 신북읍 영서로 3282 (신북읍) (전)102보충대 주차장","latitude":37.9416029,"longitude":127.7123024},"124":{"tel":"고양시동물보호센터","location":"031-962-3232","name":"경기도 고양시 덕양구 고양대로 1695 (원흥동, 고양시 농업기술센터) 고양시동물보호센터","latitude":37.6496413,"longitude":126.8702671},"125":{"tel":"한국야생동물보호협회","location":"031-296-0124","name":"경기도 안산시 상록구 청곡길 50 (부곡동) 안산시 상록구 부곡동 231-5","latitude":37.3402493,"longitude":126.870029},"126":{"tel":"횡성유기동물보호센터","location":"033-731-1119","name":"강원도 원주시 호저면 칠봉로 110-6","latitude":37.4163215,"longitude":127.9128786},"127":{"tel":"울산유기동물보호센터","location":"052-238-6113","name":"울산광역시 울주군 온양읍 발리 1144","latitude":35.3911974,"longitude":129.2857055},"128":{"tel":"울산유기동물보호센터","location":"052-238-6113","name":"울산광역시 울주군 온양읍 발리 1144","latitude":35.3911974,"longitude":129.2857055},"129":{"tel":"통영시동물보호센터","location":"055-650-6253","name":"경상남도 통영시 광도면 전두1길 9-8","latitude":34.9044045,"longitude":128.4044296},"130":{"tel":"통영시동물보호센터","location":"055-650-6253","name":"경상남도 통영시 광도면 전두1길 9-8","latitude":34.9044045,"longitude":128.4044296},"131":{"tel":"거제시유기동물보호소","location":"055-639-6368","name":"경상남도 거제시 사등면 두동로1길 109 (사등면, 한국자원재생공사폐비닐적재장) 거제시유기동물보호소","latitude":34.8837564,"longitude":128.5736846},"132":{"tel":"거제시유기동물보호소","location":"055-639-6368","name":"경상남도 거제시 사등면 두동로1길 109 (사등면, 한국자원재생공사폐비닐적재장) 거제시유기동물보호소","latitude":34.8837564,"longitude":128.5736846},"133":{"tel":"진주시유기동물보호소","location":"055-749-6134","name":"경상남도 진주시 집현면 신당길207번길 22 (집현면, 지역농업개발시설)","latitude":35.2266972,"longitude":128.1215889},"134":{"tel":"장성군동물보호센터","location":"010-6271-8889","name":"전라남도 장성군 삼서면 대중길 29-27","latitude":35.2415511,"longitude":126.6105723},"135":{"tel":"장성군동물보호센터","location":"010-6271-8889","name":"전라남도 장성군 삼서면 대중길 29-27","latitude":35.2415511,"longitude":126.6105723},"136":{"tel":"춘천시 동물보호센터","location":"033-245-5351","name":"강원도 춘천시 신북읍 영서로 3282 (신북읍) (전)102보충대 주차장","latitude":37.9416029,"longitude":127.7123024},"137":{"tel":"용인시 동물보호센터","location":"031-324-3463","name":"경기도 용인시 처인구 중부대로 1074-1 (삼가동) 용인시 동물보호센터","latitude":37.2433128,"longitude":127.1593393},"138":{"tel":"증평가정견훈련소","location":"010-4705-0109","name":"충청북도 증평군 도안면 입장길 239 (도안면)","latitude":36.8469618,"longitude":127.608225},"139":{"tel":"증평가정견훈련소","location":"010-4705-0109","name":"충청북도 증평군 도안면 입장길 239 (도안면)","latitude":36.8469618,"longitude":127.608225},"140":{"tel":"증평가정견훈련소","location":"010-4705-0109","name":"충청북도 증평군 도안면 입장길 239 (도안면)","latitude":36.8469618,"longitude":127.608225},"141":{"tel":"울산유기동물보호센터","location":"052-238-6113","name":"울산광역시 울주군 온양읍 발리 1144","latitude":35.3911974,"longitude":129.2857055},"142":{"tel":"성주유기동물보호센터","location":"010-2949-6699","name":"경상북도 성주군 선남면 선노로 522 (선남면)","latitude":35.920597,"longitude":128.394282},"143":{"tel":"성주유기동물보호센터","location":"010-2949-6699","name":"경상북도 성주군 선남면 선노로 522 (선남면)","latitude":35.920597,"longitude":128.394282},"144":{"tel":"수원시 동물보호센터","location":"031-228-3557","name":"경기도 수원시 영통구 광교호수로 234 (하동, 수원시 동물보호센터) 하동 40-10","latitude":37.2850231,"longitude":127.0787093},"145":{"tel":"울산유기동물보호센터","location":"052-238-6113","name":"울산광역시 울주군 온양읍 발리 1144","latitude":35.3911974,"longitude":129.2857055},"146":{"tel":"누리동물병원","location":"051-701-7599","name":"부산광역시 해운대구 송정2로13번길 46 (송정동)","latitude":35.1948158,"longitude":129.2063167},"147":{"tel":"거제시유기동물보호소","location":"055-639-6368","name":"경상남도 거제시 사등면 두동로1길 109 (사등면, 한국자원재생공사폐비닐적재장) 거제시유기동물보호소","latitude":34.8837564,"longitude":128.5736846},"148":{"tel":"거제시유기동물보호소","location":"055-639-6368","name":"경상남도 거제시 사등면 두동로1길 109 (사등면, 한국자원재생공사폐비닐적재장) 거제시유기동물보호소","latitude":34.8837564,"longitude":128.5736846},"149":{"tel":"마산유기동물보호소","location":"055-225-5481","name":"경상남도 창원시 마산합포구 진북면 지산2길 139-112 226-19","latitude":35.1194227,"longitude":128.4682636},"150":{"tel":"순천시유기동물보호소","location":"061-749-8793","name":"전라남도 순천시 승주읍 승주로 628 (승주읍, 농업기술센터) 순천시유기동물보호소","latitude":35.0158098,"longitude":127.3794198},"151":{"tel":"군산유기동물보호센터","location":"063-451-2975","name":"전라북도 군산시 대야면 보덕안정길 108-20","latitude":35.9607763,"longitude":126.8164012},"152":{"tel":"옥천동물병원","location":"010-8843-8844","name":"충청북도 옥천군 옥천읍 삼금로 53 (옥천읍, 동물병원) 옥천동물병원","latitude":36.3030442,"longitude":127.5687869},"153":{"tel":"옥천동물병원","location":"010-8843-8844","name":"충청북도 옥천군 옥천읍 삼금로 53 (옥천읍, 동물병원) 옥천동물병원","latitude":36.3030442,"longitude":127.5687869},"154":{"tel":"옥천동물병원","location":"010-8843-8844","name":"충청북도 옥천군 옥천읍 삼금로 53 (옥천읍, 동물병원) 옥천동물병원","latitude":36.3030442,"longitude":127.5687869},"155":{"tel":"옥천동물병원","location":"010-8843-8844","name":"충청북도 옥천군 옥천읍 삼금로 53 (옥천읍, 동물병원) 옥천동물병원","latitude":36.3030442,"longitude":127.5687869},"156":{"tel":"한국야생동물보호협회","location":"031-296-0124","name":"경기도 안산시 상록구 청곡길 50 (부곡동) 안산시 상록구 부곡동 231-5","latitude":37.3402493,"longitude":126.870029},"157":{"tel":"한국야생동물보호협회","location":"031-296-0124","name":"경기도 안산시 상록구 청곡길 50 (부곡동) 안산시 상록구 부곡동 231-5","latitude":37.3402493,"longitude":126.870029},"158":{"tel":"한국야생동물보호협회","location":"031-296-0124","name":"경기도 안산시 상록구 청곡길 50 (부곡동) 안산시 상록구 부곡동 231-5","latitude":37.3402493,"longitude":126.870029},"159":{"tel":"강릉시 동물사랑센터","location":"033-641-7515","name":"강원도 강릉시 성산면 내맬길 172","latitude":37.6988768,"longitude":128.8292631},"160":{"tel":"장성군동물보호센터","location":"010-6271-8889","name":"전라남도 장성군 삼서면 대중길 29-27","latitude":35.2415511,"longitude":126.6105723},"161":{"tel":"거제시유기동물보호소","location":"055-639-6368","name":"경상남도 거제시 사등면 두동로1길 109 (사등면, 한국자원재생공사폐비닐적재장) 거제시유기동물보호소","latitude":34.8837564,"longitude":128.5736846},"162":{"tel":"진주시유기동물보호소","location":"055-749-6134","name":"경상남도 진주시 집현면 신당길207번길 22 (집현면, 지역농업개발시설)","latitude":35.2266972,"longitude":128.1215889},"163":{"tel":"진주시유기동물보호소","location":"055-749-6134","name":"경상남도 진주시 집현면 신당길207번길 22 (집현면, 지역농업개발시설)","latitude":35.2266972,"longitude":128.1215889},"164":{"tel":"경산시유기동물보호소","location":"010-2536-0955","name":"경상북도 경산시 용성면 사양지길 95 (용성면)","latitude":35.7778815,"longitude":128.8855551},"165":{"tel":"전북말산업복합센터","location":"063-547-3549","name":"전라북도 김제시 용지면 금백로 571-39 (용지면) 전북말산업복합센터","latitude":35.823505,"longitude":126.9949894},"166":{"tel":"논산시 동물보호센터","location":"041-746-6109","name":"충청남도 논산시 계백로665번길 100 (등화동) 논산시 동물보호센터 더함","latitude":36.1856883,"longitude":127.0585328},"167":{"tel":"강릉시 동물사랑센터","location":"033-641-7515","name":"강원도 강릉시 성산면 내맬길 172","latitude":37.6988768,"longitude":128.8292631},"168":{"tel":"양산시 동물보호센터","location":"055-392-5669","name":"경상남도 양산시 동면 석산리 392 양산시농업기술센터","latitude":35.3244546,"longitude":129.0339939},"169":{"tel":"유기동물보호소","location":"061-659-4429","name":"전라남도 여수시 주동1길 32 (주삼동, 여수시농업기술센터) 여수시 유기동물보호소","latitude":34.7879983,"longitude":127.6536191},"170":{"tel":"원 동물병원","location":"063-653-2002","name":"전라북도 순창군 순창읍 순화로 22 (순창읍)","latitude":35.3760332,"longitude":127.1370995},"171":{"tel":"장성군동물보호센터","location":"010-6271-8889","name":"전라남도 장성군 삼서면 대중길 29-27","latitude":35.2415511,"longitude":126.6105723},"172":{"tel":"울산유기동물보호센터","location":"052-238-6113","name":"울산광역시 울주군 온양읍 화산발리로 543 (온양읍)","latitude":35.3911333,"longitude":129.2858282},"173":{"tel":"강릉시 동물사랑센터","location":"033-641-7515","name":"강원도 강릉시 성산면 내맬길 172","latitude":37.6988768,"longitude":128.8292631},"174":{"tel":"장성군동물보호센터","location":"010-6271-8889","name":"전라남도 장성군 삼서면 대중길 29-27","latitude":35.2415511,"longitude":126.6105723},"175":{"tel":"장성군동물보호센터","location":"010-6271-8889","name":"전라남도 장성군 삼서면 대중길 29-27","latitude":35.2415511,"longitude":126.6105723},"176":{"tel":"양산시 동물보호센터","location":"055-392-5669","name":"경상남도 양산시 동면 석산리 392 양산시농업기술센터","latitude":35.3244546,"longitude":129.0339939},"177":{"tel":"울산유기동물보호센터","location":"052-238-6113","name":"울산광역시 울주군 온양읍 발리 1144","latitude":35.3911974,"longitude":129.2857055},"178":{"tel":"광주 동물보호소","location":"062-571-2808","name":"광주광역시 북구 본촌마을길 27 (본촌동) 광주광역시 동물보호소","latitude":35.2224767,"longitude":126.8817582},"179":{"tel":"용인시 동물보호센터","location":"031-324-3463","name":"경기도 용인시 처인구 중부대로 1074-1 (삼가동) 용인시 동물보호센터","latitude":37.2433128,"longitude":127.1593393},"180":{"tel":"사단법인 하얀비둘기","location":"051-293-9779","name":"부산광역시 강서구 제도로 726 (강동동)","latitude":35.1775024,"longitude":128.9170219},"181":{"tel":"사단법인 하얀비둘기","location":"051-293-9779","name":"부산광역시 강서구 제도로 726 (강동동)","latitude":35.1775024,"longitude":128.9170219},"182":{"tel":"장성군동물보호센터","location":"010-6271-8889","name":"전라남도 장성군 삼서면 대중길 29-27","latitude":35.2415511,"longitude":126.6105723},"183":{"tel":"원주유기동물보호센터","location":"033-731-1119","name":"강원도 원주시 호저면 칠봉로 110-6","latitude":37.4163215,"longitude":127.9128786},"184":{"tel":"성주유기동물보호센터","location":"010-2949-6699","name":"경상북도 성주군 선남면 선노로 522 (선남면)","latitude":35.920597,"longitude":128.394282},"185":{"tel":"성주유기동물보호센터","location":"010-2949-6699","name":"경상북도 성주군 선남면 선노로 522 (선남면)","latitude":35.920597,"longitude":128.394282},"186":{"tel":"임실유기동물보호센터","location":"063-640-2516","name":"전라북도 임실군 오수면 춘향로 1554-95  펫추모공원 입구, 유기동물보호센터","latitude":35.5394809,"longitude":127.3485286},"187":{"tel":"옥천동물병원","location":"010-8843-8844","name":"충청북도 옥천군 옥천읍 삼금로 53 (옥천읍, 동물병원) 옥천동물병원","latitude":36.3030442,"longitude":127.5687869},"188":{"tel":"옥천동물병원","location":"010-8843-8844","name":"충청북도 옥천군 옥천읍 삼금로 53 (옥천읍, 동물병원) 옥천동물병원","latitude":36.3030442,"longitude":127.5687869},"189":{"tel":"옥천동물병원","location":"010-8843-8844","name":"충청북도 옥천군 옥천읍 삼금로 53 (옥천읍, 동물병원) 옥천동물병원","latitude":36.3030442,"longitude":127.5687869},"190":{"tel":"용인시 동물보호센터","location":"031-324-3463","name":"경기도 용인시 처인구 중부대로 1074-1 (삼가동) 용인시 동물보호센터","latitude":37.2433128,"longitude":127.1593393},"191":{"tel":"광주 동물보호소","location":"062-571-2808","name":"광주광역시 북구 본촌마을길 27 (본촌동) 광주공역시 동물보호소","latitude":35.2224767,"longitude":126.8817582},"192":{"tel":"군산유기동물보호센터","location":"063-451-2975","name":"전라북도 군산시 대야면 보덕안정길 108-20","latitude":35.9607763,"longitude":126.8164012},"193":{"tel":"원주유기동물보호센터","location":"033-731-1119","name":"강원도 원주시 호저면 칠봉로 110-6","latitude":37.4163215,"longitude":127.9128786},"194":{"tel":"담양군 동물보호센터","location":"010-3604-1338","name":"전라남도 담양군 용면 시암골로 280-57 (용면) :용면 두장리 21번지","latitude":35.3585662,"longitude":127.0015732},"195":{"tel":"담양군 동물보호센터","location":"010-3604-1338","name":"전라남도 담양군 용면 시암골로 280-57 (용면) :용면 두장리 21번지","latitude":35.3585662,"longitude":127.0015732},"196":{"tel":"군산유기동물보호센터","location":"063-451-2975","name":"전라북도 군산시 대야면 보덕안정길 108-20","latitude":35.9607763,"longitude":126.8164012},"197":{"tel":"횡성유기동물보호센터","location":"033-731-1119","name":"강원도 원주시 호저면 칠봉로 110-6","latitude":37.4163215,"longitude":127.9128786},"198":{"tel":"창원유기동물보호소","location":"055-225-5481","name":"경상남도 창원시 의창구 창이대로 71 (명서동, 창원시농업기술센터) 축산과","latitude":35.239026,"longitude":128.646613},"199":{"tel":"울산유기동물보호센터","location":"052-238-6113","name":"울산광역시 울주군 온양읍 발리 1144","latitude":35.3911974,"longitude":129.2857055},"200":{"tel":"거제시유기동물보호소","location":"055-639-6368","name":"경상남도 거제시 사등면 두동로1길 109 (사등면, 한국자원재생공사폐비닐적재장) 거제시유기동물보호소","latitude":34.8837564,"longitude":128.5736846},"201":{"tel":"마산유기동물보호소","location":"055-225-5481","name":"경상남도 창원시 마산합포구 진북면 지산2길 139-112 226-19","latitude":35.1194227,"longitude":128.4682636},"202":{"tel":"성주유기동물보호센터","location":"010-2949-6699","name":"경상북도 성주군 선남면 선노로 522 (선남면)","latitude":35.920597,"longitude":128.394282},"203":{"tel":"장성군동물보호센터","location":"010-6271-8889","name":"전라남도 장성군 삼서면 대중길 29-27","latitude":35.2415511,"longitude":126.6105723},"204":{"tel":"장성군동물보호센터","location":"010-6271-8889","name":"전라남도 장성군 삼서면 대중길 29-27","latitude":35.2415511,"longitude":126.6105723},"205":{"tel":"강진군 유기견 보호소","location":"061-430-3613","name":"전라남도 강진군 강진읍 초지길 109-62 (강진읍, 강진군상하수도사업소)","latitude":34.6248122,"longitude":126.7773945},"206":{"tel":"순천시유기동물보호소","location":"061-749-8793","name":"전라남도 순천시 승주읍 승주로 628 (승주읍, 농업기술센터) 순천시유기동물보호소","latitude":35.0158098,"longitude":127.3794198},"207":{"tel":"청양보호소","location":"041-940-2972","name":"충청남도 청양군 대치면 청산로 446-17 (대치면)","latitude":36.4711919,"longitude":126.8314012},"208":{"tel":"옥천동물병원","location":"010-8843-8844","name":"충청북도 옥천군 옥천읍 삼금로 53 (옥천읍, 동물병원) 옥천동물병원","latitude":36.3030442,"longitude":127.5687869},"209":{"tel":"옥천동물병원","location":"010-8843-8844","name":"충청북도 옥천군 옥천읍 삼금로 53 (옥천읍, 동물병원) 옥천동물병원","latitude":36.3030442,"longitude":127.5687869},"210":{"tel":"위더스 동물보호센터","location":"031-882-4381","name":"경기도 여주시 능서면 능서공원길 34 (능서면)","latitude":37.2972347,"longitude":127.5759398},"211":{"tel":"담양군 동물보호센터","location":"010-3604-1338","name":"전라남도 담양군 용면 시암골로 280-57 (용면) :용면 두장리 21번지","latitude":35.3585662,"longitude":127.0015732},"212":{"tel":"익산유기동물보호소","location":"063-855-1214","name":"전라북도 익산시 서동로42길 77 (용제동) 16통 1반","latitude":35.936683,"longitude":127.0024201},"213":{"tel":"창원유기동물보호소","location":"055-225-5481","name":"경상남도 창원시 의창구 창이대로 71 (명서동, 창원시농업기술센터) 축산과","latitude":35.239026,"longitude":128.646613},"214":{"tel":"순천시유기동물보호소","location":"061-749-3094","name":"전라남도 순천시 승주읍 승주로 628 (승주읍, 농업기술센터) 순천시유기동물보호소","latitude":35.0158098,"longitude":127.3794198},"215":{"tel":"전북말산업복합센터","location":"063-547-3549","name":"전라북도 김제시 용지면 금백로 571-39 (용지면) 전북말산업복합센터","latitude":35.823505,"longitude":126.9949894},"216":{"tel":"횡성유기동물보호센터","location":"033-731-1119","name":"강원도 원주시 호저면 칠봉로 110-6","latitude":37.4163215,"longitude":127.9128786},"217":{"tel":"수원시 동물보호센터","location":"031-228-3557","name":"경기도 수원시 영통구 광교호수로 234 (하동, 수원시 동물보호센터) 하동 40-10","latitude":37.2850231,"longitude":127.0787093},"218":{"tel":"광주 동물보호소","location":"062-571-2808","name":"광주광역시 북구 본촌마을길 27 (본촌동) 광주광역시 동물보호소","latitude":35.2224767,"longitude":126.8817582},"219":{"tel":"산청동물보호센터","location":"010-2050-8577","name":"경상남도 산청군 산청읍 친환경로 2783-25 (산청읍)","latitude":35.4261507,"longitude":127.8811362},"220":{"tel":"원주유기동물보호센터","location":"033-731-1119","name":"강원도 원주시 호저면 칠봉로 110-6","latitude":37.4163215,"longitude":127.9128786},"221":{"tel":"고성군유기동물보호소","location":"055-670-4314","name":"경상남도 고성군 고성읍 남해안대로 2829-60  고성군농업기술센터 동물보호센터","latitude":34.9960055,"longitude":128.3258243},"222":{"tel":"순천시유기동물보호소","location":"061-749-8793","name":"전라남도 순천시 승주읍 승주로 628 (승주읍, 농업기술센터) 순천시유기동물보호소","latitude":35.0158098,"longitude":127.3794198},"223":{"tel":"횡성유기동물보호센터","location":"033-731-1119","name":"강원도 원주시 호저면 칠봉로 110-6","latitude":37.4163215,"longitude":127.9128786},"224":{"tel":"신영재동물병원","location":"032-552-0075","name":"인천광역시 계양구 장제로 923 (병방동)","latitude":37.5488676,"longitude":126.7414359},"225":{"tel":"별빛유기동물지킴이","location":"010-4137-1009","name":"전라북도 완주군 용진읍 순지2길 187-6","latitude":35.9418888,"longitude":127.1903212},"226":{"tel":"정읍시 동물보호소","location":"063-535-6295","name":"전라북도 정읍시 2산단5길 37-1 (하북동)","latitude":35.5913486,"longitude":126.8735355},"227":{"tel":"옥천동물병원","location":"010-8843-8844","name":"충청북도 옥천군 옥천읍 삼금로 53 (옥천읍, 동물병원) 옥천동물병원","latitude":36.3030442,"longitude":127.5687869},"228":{"tel":"옥천동물병원","location":"010-8843-8844","name":"충청북도 옥천군 옥천읍 삼금로 53 (옥천읍, 동물병원) 옥천동물병원","latitude":36.3030442,"longitude":127.5687869},"229":{"tel":"원주유기동물보호센터","location":"033-731-1119","name":"강원도 원주시 호저면 칠봉로 110-6","latitude":37.4163215,"longitude":127.9128786},"230":{"tel":"울산유기동물보호센터","location":"052-238-6113","name":"울산광역시 울주군 온양읍 화산발리로 543 (온양읍)","latitude":35.3911333,"longitude":129.2858282},"231":{"tel":"군산유기동물보호센터","location":"063-451-2975","name":"전라북도 군산시 대야면 보덕안정길 108-20","latitude":35.9607763,"longitude":126.8164012},"232":{"tel":"군산유기동물보호센터","location":"063-451-2975","name":"전라북도 군산시 대야면 보덕안정길 108-20","latitude":35.9607763,"longitude":126.8164012},"233":{"tel":"군산유기동물보호센터","location":"063-451-2975","name":"전라북도 군산시 대야면 보덕안정길 108-20","latitude":35.9607763,"longitude":126.8164012},"234":{"tel":"군산유기동물보호센터","location":"063-451-2975","name":"전라북도 군산시 대야면 보덕안정길 108-20","latitude":35.9607763,"longitude":126.8164012},"235":{"tel":"수원시 동물보호센터","location":"031-228-3557","name":"경기도 수원시 영통구 광교호수로 234 (하동, 수원시 동물보호센터) 하동 40-10","latitude":37.2850231,"longitude":127.0787093},"236":{"tel":"광주 동물보호소","location":"062-571-2808","name":"광주광역시 북구 본촌마을길 27 (본촌동) 광주광역시 동물보호소","latitude":35.2224767,"longitude":126.8817582},"237":{"tel":"창원유기동물보호소","location":"055-225-5481","name":"경상남도 창원시 의창구 창이대로 71 (명서동, 창원시농업기술센터) 축산과","latitude":35.239026,"longitude":128.646613},"238":{"tel":"창원유기동물보호소","location":"055-225-5481","name":"경상남도 창원시 의창구 창이대로 71 (명서동, 창원시농업기술센터) 축산과","latitude":35.239026,"longitude":128.646613},"239":{"tel":"익산유기동물보호소","location":"063-855-1214","name":"전라북도 익산시 서동로42길 77 (용제동) 16통 1반","latitude":35.936683,"longitude":127.0024201},"240":{"tel":"금일동물보호센터","location":"010-5432-5665","name":"충청남도 홍성군 홍동면 충절로 625 (홍동면)","latitude":36.5788187,"longitude":126.7054855},"241":{"tel":"대전동물보호센터","location":"042-825-1118","name":"대전광역시 유성구 금남구즉로 1234 (금고동) 대전광역시 동물보호센터","latitude":36.4587819,"longitude":127.3828266},"242":{"tel":"당진시동물보호소","location":"041-356-8210","name":"충청남도 당진시 고대면 연동로 30-6 (고대면)","latitude":36.9340502,"longitude":126.596256},"243":{"tel":"당진시동물보호소","location":"041-356-8210","name":"충청남도 당진시 고대면 연동로 30-6 (고대면)","latitude":36.9340502,"longitude":126.596256},"244":{"tel":"통영시동물보호센터","location":"055-650-6253","name":"경상남도 통영시 광도면 전두1길 9-8","latitude":34.9044045,"longitude":128.4044296},"245":{"tel":"양산시 동물보호센터","location":"055-392-5669","name":"경상남도 양산시 동면 석산리 392 양산시농업기술센터","latitude":35.3244546,"longitude":129.0339939},"246":{"tel":"장성군동물보호센터","location":"010-6271-8889","name":"전라남도 장성군 삼서면 대중길 29-27","latitude":35.2415511,"longitude":126.6105723},"247":{"tel":"장성군동물보호센터","location":"010-6271-8889","name":"전라남도 장성군 삼서면 대중길 29-27","latitude":35.2415511,"longitude":126.6105723},"248":{"tel":"군산유기동물보호센터","location":"063-451-2975","name":"전라북도 군산시 대야면 보덕안정길 108-20","latitude":35.9607763,"longitude":126.8164012},"249":{"tel":"옥천동물병원","location":"010-8843-8844","name":"충청북도 옥천군 옥천읍 삼금로 53 (옥천읍, 동물병원) 옥천동물병원","latitude":36.3030442,"longitude":127.5687869},"250":{"tel":"옥천동물병원","location":"010-8843-8844","name":"충청북도 옥천군 옥천읍 삼금로 53 (옥천읍, 동물병원) 옥천동물병원","latitude":36.3030442,"longitude":127.5687869},"251":{"tel":"옥천동물병원","location":"010-8843-8844","name":"충청북도 옥천군 옥천읍 삼금로 53 (옥천읍, 동물병원) 옥천동물병원","latitude":36.3030442,"longitude":127.5687869},"252":{"tel":"옥천동물병원","location":"010-8843-8844","name":"충청북도 옥천군 옥천읍 삼금로 53 (옥천읍, 동물병원) 옥천동물병원","latitude":36.3030442,"longitude":127.5687869},"253":{"tel":"광주 동물보호소","location":"062-571-2808","name":"광주광역시 북구 본촌마을길 27 (본촌동) 광주광역시 동물보호소","latitude":35.2224767,"longitude":126.8817582},"254":{"tel":"광주 동물보호소","location":"062-571-2808","name":"광주광역시 북구 본촌마을길 27 (본촌동) 광주광역시 동물보호소","latitude":35.2224767,"longitude":126.8817582},"255":{"tel":"사단법인 하얀비둘기","location":"051-293-9779","name":"부산광역시 강서구 제도로 726 (강동동)","latitude":35.1775024,"longitude":128.9170219},"256":{"tel":"사단법인 하얀비둘기","location":"051-293-9779","name":"부산광역시 강서구 제도로 726 (강동동)","latitude":35.1775024,"longitude":128.9170219},"257":{"tel":"사단법인 하얀비둘기","location":"051-293-9779","name":"부산광역시 강서구 제도로 726 (강동동)","latitude":35.1775024,"longitude":128.9170219},"258":{"tel":"사단법인 하얀비둘기","location":"051-293-9779","name":"부산광역시 강서구 제도로 726 (강동동)","latitude":35.1775024,"longitude":128.9170219},"259":{"tel":"누리동물병원","location":"051-701-7599","name":"부산광역시 해운대구 송정2로13번길 46 (송정동)","latitude":35.1948158,"longitude":129.2063167},"260":{"tel":"울산유기동물보호센터","location":"052-238-6113","name":"울산광역시 울주군 온양읍 화산발리로 543 (온양읍)","latitude":35.3911333,"longitude":129.2858282},"261":{"tel":"울산유기동물보호센터","location":"052-238-6113","name":"울산광역시 울주군 온양읍 화산발리로 543 (온양읍)","latitude":35.3911333,"longitude":129.2858282},"262":{"tel":"원주유기동물보호센터","location":"033-731-1119","name":"강원도 원주시 호저면 칠봉로 110-6","latitude":37.4163215,"longitude":127.9128786},"263":{"tel":"원주유기동물보호센터","location":"033-731-1119","name":"강원도 원주시 호저면 칠봉로 110-6","latitude":37.4163215,"longitude":127.9128786},"264":{"tel":"옥천동물병원","location":"010-8843-8844","name":"충청북도 옥천군 옥천읍 삼금로 53 (옥천읍, 동물병원) 옥천동물병원","latitude":36.3030442,"longitude":127.5687869},"265":{"tel":"옥천동물병원","location":"010-8843-8844","name":"충청북도 옥천군 옥천읍 삼금로 53 (옥천읍, 동물병원) 옥천동물병원","latitude":36.3030442,"longitude":127.5687869},"266":{"tel":"옥천동물병원","location":"010-8843-8844","name":"충청북도 옥천군 옥천읍 삼금로 53 (옥천읍, 동물병원) 옥천동물병원","latitude":36.3030442,"longitude":127.5687869},"267":{"tel":"용인시 동물보호센터","location":"031-324-3463","name":"경기도 용인시 처인구 중부대로 1074-1 (삼가동) 용인시 동물보호센터","latitude":37.2433128,"longitude":127.1593393},"268":{"tel":"대전동물보호센터","location":"042-825-1118","name":"대전광역시 유성구 금남구즉로 1234 (금고동) 대전광역시 동물보호센터","latitude":36.4587819,"longitude":127.3828266},"269":{"tel":"양양군유기동물보호소","location":"033-670-2459","name":"강원도 양양군 손양면 동막골길 115-35  .","latitude":38.0204594,"longitude":128.6433096},"270":{"tel":"양양군유기동물보호소","location":"033-670-2459","name":"강원도 양양군 손양면 동막골길 115-35  .","latitude":38.0204594,"longitude":128.6433096},"271":{"tel":"양양군유기동물보호소","location":"033-670-2459","name":"강원도 양양군 손양면 동막골길 115-35  .","latitude":38.0204594,"longitude":128.6433096},"272":{"tel":"양양군유기동물보호소","location":"033-670-2459","name":"강원도 양양군 손양면 동막골길 115-35  .","latitude":38.0204594,"longitude":128.6433096},"273":{"tel":"고성군유기동물보호소","location":"055-670-4314","name":"경상남도 고성군 고성읍 남해안대로 2829-60  고성군농업기술센터 동물보호센터","latitude":34.9960055,"longitude":128.3258243},"274":{"tel":"고성군유기동물보호소","location":"055-670-4314","name":"경상남도 고성군 고성읍 남해안대로 2829-60  고성군농업기술센터 동물보호센터","latitude":34.9960055,"longitude":128.3258243},"275":{"tel":"횡성유기동물보호센터","location":"033-731-1119","name":"강원도 원주시 호저면 칠봉로 110-6","latitude":37.4163215,"longitude":127.9128786},"276":{"tel":"횡성유기동물보호센터","location":"033-731-1119","name":"강원도 원주시 호저면 칠봉로 110-6","latitude":37.4163215,"longitude":127.9128786},"277":{"tel":"담양군 동물보호센터","location":"010-3604-1338","name":"전라남도 담양군 용면 시암골로 280-57 (용면) :용면 두장리 21번지","latitude":35.3585662,"longitude":127.0015732},"278":{"tel":"울산유기동물보호센터","location":"052-238-6113","name":"울산광역시 울주군 온양읍 화산발리로 543 (온양읍)","latitude":35.3911333,"longitude":129.2858282},"279":{"tel":"밀양시동물보호센터","location":"010-5656-6665","name":"경상남도 밀양시 삼랑진읍 천태로 472 (삼랑진읍)","latitude":35.407685,"longitude":128.879769},"280":{"tel":"원 동물병원","location":"063-653-2002","name":"전라북도 순창군 순창읍 순화로 22 (순창읍)","latitude":35.3760332,"longitude":127.1370995},"281":{"tel":"양양군유기동물보호소","location":"033-670-2459","name":"강원도 양양군 손양면 동막골길 115-35  .","latitude":38.0204594,"longitude":128.6433096},"282":{"tel":"양양군유기동물보호소","location":"033-670-2459","name":"강원도 양양군 손양면 동막골길 115-35  .","latitude":38.0204594,"longitude":128.6433096},"283":{"tel":"익산유기동물보호소","location":"063-855-1214","name":"전라북도 익산시 서동로42길 77 (용제동) 16통 1반","latitude":35.936683,"longitude":127.0024201},"284":{"tel":"대전동물보호센터","location":"042-825-1118","name":"대전광역시 유성구 금남구즉로 1234 (금고동) 대전광역시 동물보호센터","latitude":36.4587819,"longitude":127.3828266},"285":{"tel":"광주 동물보호소","location":"062-571-2808","name":"광주광역시 북구 본촌마을길 27 (본촌동) 광주광역시 동물보호소","latitude":35.2224767,"longitude":126.8817582},"286":{"tel":"경산시유기동물보호소","location":"010-2536-0955","name":"경상북도 경산시 용성면 사양지길 95 (용성면)","latitude":35.7778815,"longitude":128.8855551},"287":{"tel":"순천시유기동물보호소","location":"061-749-8793","name":"전라남도 순천시 승주읍 승주로 628 (승주읍, 농업기술센터) 순천시유기동물보호소","latitude":35.0158098,"longitude":127.3794198},"288":{"tel":"대전동물보호센터","location":"042-825-1118","name":"대전광역시 유성구 금남구즉로 1234 (금고동) 대전광역시 동물보호센터","latitude":36.4587819,"longitude":127.3828266},"289":{"tel":"누리동물병원","location":"051-701-7599","name":"부산광역시 해운대구 송정동 85-1","latitude":35.1948366,"longitude":129.2063261},"290":{"tel":"통영시동물보호센터","location":"055-650-6253","name":"경상남도 통영시 광도면 전두1길 9-8","latitude":34.9044045,"longitude":128.4044296},"291":{"tel":"통영시동물보호센터","location":"055-650-6253","name":"경상남도 통영시 광도면 전두1길 9-8","latitude":34.9044045,"longitude":128.4044296},"292":{"tel":"영천유기동물보호센터","location":"054-339-7175","name":"경상북도 영천시 천문로 622-13 (오미동, 영천시농업기술센터)","latitude":35.990918,"longitude":128.9259568},"293":{"tel":"유기동물보호센터","location":"010-7703-1999","name":"경상북도 안동시 서후면 풍산태사로 3252-29 (서후면)","latitude":36.635987,"longitude":128.6838493},"294":{"tel":"용인시 동물보호센터","location":"031-324-3463","name":"경기도 용인시 처인구 중부대로 1074-1 (삼가동) 용인시 동물보호센터","latitude":37.2433128,"longitude":127.1593393},"295":{"tel":"남해군유기동물보호소","location":"055-862-5041","name":"경상남도 남해군 이동면 무림로 33-13 (이동면)","latitude":34.8035407,"longitude":127.9536654},"296":{"tel":"진주시유기동물보호소","location":"055-749-6134","name":"경상남도 진주시 집현면 신당길207번길 22 (집현면, 지역농업개발시설)","latitude":35.2266972,"longitude":128.1215889},"297":{"tel":"진주시유기동물보호소","location":"055-749-6134","name":"경상남도 진주시 집현면 신당길207번길 22 (집현면, 지역농업개발시설)","latitude":35.2266972,"longitude":128.1215889},"298":{"tel":"진주시유기동물보호소","location":"055-749-6134","name":"경상남도 진주시 집현면 신당길207번길 22 (집현면, 지역농업개발시설)","latitude":35.2266972,"longitude":128.1215889},"299":{"tel":"군산유기동물보호센터","location":"063-451-2975","name":"전라북도 군산시 대야면 보덕안정길 108-20","latitude":35.9607763,"longitude":126.8164012},"300":{"tel":"군산유기동물보호센터","location":"063-451-2975","name":"전라북도 군산시 대야면 보덕안정길 108-20","latitude":35.9607763,"longitude":126.8164012},"301":{"tel":"옥천동물병원","location":"010-8843-8844","name":"충청북도 옥천군 옥천읍 삼금로 53 (옥천읍, 동물병원) 옥천동물병원","latitude":36.3030442,"longitude":127.5687869},"302":{"tel":"옥천동물병원","location":"010-8843-8844","name":"충청북도 옥천군 옥천읍 삼금로 53 (옥천읍, 동물병원) 옥천동물병원","latitude":36.3030442,"longitude":127.5687869},"303":{"tel":"옥천동물병원","location":"010-8843-8844","name":"충청북도 옥천군 옥천읍 삼금로 53 (옥천읍, 동물병원) 옥천동물병원","latitude":36.3030442,"longitude":127.5687869},"304":{"tel":"옥천동물병원","location":"010-8843-8844","name":"충청북도 옥천군 옥천읍 삼금로 53 (옥천읍, 동물병원) 옥천동물병원","latitude":36.3030442,"longitude":127.5687869},"305":{"tel":"옥천동물병원","location":"010-8843-8844","name":"충청북도 옥천군 옥천읍 삼금로 53 (옥천읍, 동물병원) 옥천동물병원","latitude":36.3030442,"longitude":127.5687869},"306":{"tel":"광주 동물보호소","location":"062-571-2808","name":"광주광역시 북구 본촌마을길 27 (본촌동) 광주광역시 동물보호소","latitude":35.2224767,"longitude":126.8817582},"307":{"tel":"원주유기동물보호센터","location":"033-731-1119","name":"강원도 원주시 호저면 칠봉로 110-6","latitude":37.4163215,"longitude":127.9128786},"308":{"tel":"영천유기동물보호센터","location":"054-339-7175","name":"경상북도 영천시 천문로 622-13 (오미동, 영천시농업기술센터)","latitude":35.990918,"longitude":128.9259568},"309":{"tel":"양산시 동물보호센터","location":"055-392-5667","name":"경상남도 양산시 동면 석산리 392 양산시농업기술센터","latitude":35.3244546,"longitude":129.0339939},"310":{"tel":"익산유기동물보호소","location":"063-855-1214","name":"전라북도 익산시 서동로42길 77 (용제동) 16통 1반","latitude":35.936683,"longitude":127.0024201},"311":{"tel":"군산유기동물보호센터","location":"063-451-2975","name":"전라북도 군산시 대야면 보덕안정길 108-20","latitude":35.9607763,"longitude":126.8164012},"312":{"tel":"원주유기동물보호센터","location":"033-731-1119","name":"강원도 원주시 호저면 칠봉로 110-6","latitude":37.4163215,"longitude":127.9128786},"313":{"tel":"원주유기동물보호센터","location":"033-731-1119","name":"강원도 원주시 호저면 칠봉로 110-6","latitude":37.4163215,"longitude":127.9128786},"314":{"tel":"고성군유기동물보호소","location":"055-670-4314","name":"경상남도 고성군 고성읍 남해안대로 2829-60  고성군농업기술센터 동물보호센터","latitude":34.9960055,"longitude":128.3258243},"315":{"tel":"창원유기동물보호소","location":"055-225-5481","name":"경상남도 창원시 의창구 창이대로 71 (명서동, 창원시농업기술센터) 축산과","latitude":35.239026,"longitude":128.646613},"316":{"tel":"거제시유기동물보호소","location":"055-639-6368","name":"경상남도 거제시 사등면 두동로1길 109 (사등면, 한국자원재생공사폐비닐적재장) 거제시유기동물보호소","latitude":34.8837564,"longitude":128.5736846},"317":{"tel":"밀양시동물보호센터","location":"010-5656-6665","name":"경상남도 밀양시 삼랑진읍 천태로 472 (삼랑진읍)","latitude":35.407685,"longitude":128.879769},"318":{"tel":"울산유기동물보호센터","location":"052-238-6113","name":"울산광역시 울주군 온양읍 화산발리로 543 (온양읍)","latitude":35.3911333,"longitude":129.2858282},"319":{"tel":"마산유기동물보호소","location":"055-225-5481","name":"경상남도 창원시 마산합포구 진북면 지산2길 139-112 226-19","latitude":35.1194227,"longitude":128.4682636},"320":{"tel":"박영재동물병원","location":"063-284-7774","name":"전라북도 전주시 완산구 전주천서로 111 (서서학동) 박영재 동물병원","latitude":35.8100972,"longitude":127.1492046},"321":{"tel":"별빛유기동물지킴이","location":"010-4137-1009","name":"전라북도 완주군 용진읍 순지2길 187-6","latitude":35.9418888,"longitude":127.1903212},"322":{"tel":"별빛유기동물지킴이","location":"010-4137-1009","name":"전라북도 완주군 용진읍 순지2길 187-6","latitude":35.9418888,"longitude":127.1903212},"323":{"tel":"광주 동물보호소","location":"062-571-2808","name":"광주광역시 북구 본촌마을길 27 (본촌동) 광주광역시 동물보호소","latitude":35.2224767,"longitude":126.8817582},"324":{"tel":"유기동물보호센터","location":"010-7703-1999","name":"경상북도 안동시 서후면 풍산태사로 3252-29 (서후면)","latitude":36.635987,"longitude":128.6838493},"325":{"tel":"(사)하얀비둘기","location":"051-293-9779","name":"부산광역시 강서구 제도로 726 (강동동)","latitude":35.1775024,"longitude":128.9170219},"326":{"tel":"춘천시 동물보호센터","location":"033-245-5351","name":"강원도 춘천시 신북읍 영서로 3282 (신북읍) (전)102보충대 주차장","latitude":37.9416029,"longitude":127.7123024}}