{"0":{"tel":"574-7595","location":"경기도 남양주시 진접읍 장현로 134-2","name":"드림동물병원","latitude":37.7208108,"longitude":127.186174},"1":{"tel":"02-555-2272","location":"서울특별시 송파구 가락로 169, 1층 102호 (송파동)","name":"라온펫동물병원","latitude":37.5040931,"longitude":127.1138912},"2":{"tel":"02-749-7588","location":"서울특별시 용산구 이촌로 248, 11동 102호 (이촌동, 한강맨션)","name":"베이동물병원","latitude":37.5193535,"longitude":126.9750083},"3":{"tel":"031-548-2526","location":"경기도 용인시 기흥구 평촌1로2번길 6 (동백동)","name":"용인도담동물병원","latitude":37.2845588,"longitude":127.1535324},"4":{"tel":"655-3500","location":"경기도 부천시 부천로 69 (심곡동)","name":"가야동물병원","latitude":37.4905809,"longitude":126.7838886},"5":{"tel":"031-241-7551","location":"경기도 수원시 장안구 송원로 69, 4층 (송죽동)","name":"아이러브 동물병원","latitude":37.3012149,"longitude":127.0087108},"6":{"tel":"954-6990","location":"서울특별시 도봉구 도봉로180길 28, 도봉투웨니퍼스트2단지 (도봉동)","name":"해봄동물병원","latitude":37.6825416,"longitude":127.0474958},"7":{"tel":"437-7582","location":"인천광역시 남동구 예술로 198, CGV 홈플러스 1층 (구월동)","name":"백슬동물병원","latitude":37.4519427,"longitude":126.7018707},"8":{"tel":"02-420-9993","location":"서울특별시 송파구 가락로 162, 1층 (송파동)","name":"한양동물병원","latitude":37.5032668,"longitude":127.1134582},"9":{"tel":"031-434-0863","location":"경기도 시흥시 함송로 15, 화신프라자 104,105호 (정왕동)","name":"배곧코코동물병원","latitude":37.3640503,"longitude":126.7302704},"10":{"tel":"02-888-0976","location":"서울특별시 관악구 남부순환로 1964 (봉천동)","name":"나눔 양한방 동물병원","latitude":37.475491,"longitude":126.9668525},"11":{"tel":"932-0075~6","location":"경기도 고양시 일산동구 일산로394번길 5-11 (정발산동)","name":"Dr. dog 동물영상의료센터","latitude":37.6706899,"longitude":126.7812262},"12":{"tel":"464-2748","location":"서울특별시 광진구 뚝섬로 462 (자양동)","name":"노룬산동물병원","latitude":37.5368932,"longitude":127.0617889},"13":{"tel":"031-298-7502","location":"경기도 수원시 팔달구 일월로22번길 15 (화서동)","name":"동물사랑동물병원","latitude":37.2858754,"longitude":126.9805855},"14":{"tel":"0316137509","location":"경기도 화성시 여울로4길 46, 2층 (능동)","name":"나래동물의료센터","latitude":37.2163119,"longitude":127.0558364},"15":{"tel":"435-2275","location":"서울특별시 중랑구 면목로 442-1, 1층 (면목동)","name":"하스펫탈동물병원","latitude":37.5915799,"longitude":127.0869736},"16":{"tel":"912-0018","location":"서울특별시 성북구 화랑로 91 (하월곡동)","name":"비비펫 동물병원","latitude":37.6030025,"longitude":127.042155},"17":{"tel":"031-763-0170","location":"경기도 광주시 중앙로 179 (송정동)","name":"금강동물병원","latitude":37.4156152,"longitude":127.2566731},"18":{"tel":"02-3395-7975","location":"서울특별시 성동구 고산자로 207 (행당동)","name":"24시센트럴동물메디컬센터","latitude":37.5586939,"longitude":127.0336989},"19":{"tel":"561-7508","location":"인천광역시 서구 원당대로 853, 1층 102, 103호 (원당동, 삼정프라자)","name":"메이플동물병원","latitude":37.5940185,"longitude":126.6964177},"20":{"tel":"031-252-2501","location":"경기도 수원시 장안구 창룡대로 173 (연무동)","name":"펫콤동물병원","latitude":37.2921843,"longitude":127.0289788},"21":{"tel":"02-986-9875","location":"서울특별시 강북구 삼양로27길 19 (미아동, 래미안트리베라 201동 116호)","name":"쿠키동물병원","latitude":37.6173208,"longitude":127.0204063},"22":{"tel":"02-866-0880","location":"서울특별시 관악구 난곡로 247 (신림동)","name":"와우종합동물병원","latitude":37.4761277,"longitude":126.9157604},"23":{"tel":"344-5554","location":"인천광역시 부평구 경인로 887, 203호 (부평동, 롯데아이원)","name":"동수사랑동물병원","latitude":37.485855,"longitude":126.7186678},"24":{"tel":"031-499-7991","location":"경기도 시흥시 군자천로 335, 2층 201,202호 (정왕동)","name":"애니온동물병원","latitude":37.3466983,"longitude":126.7345963},"25":{"tel":"031-426-0075","location":"경기도 안양시 동안구 흥안대로 495, 1층 (관양동)","name":"인덕원종합동물병원","latitude":37.3982812,"longitude":126.9764559},"26":{"tel":"707-1776","location":"경기도 성남시 분당구 돌마로 481, 분당우성프라자 (서현동)","name":"우성동물병원","latitude":37.3777612,"longitude":127.1328657},"27":{"tel":"02-2233-1848","location":"서울특별시 성동구 금호산길 58(금호동2가)","name":"한빛동물병원","latitude":37.5533393,"longitude":127.0195758},"28":{"tel":"02-2233-6675","location":"서울특별시 중구 다산로36길 83, 1층 (신당동)","name":"신당 좋아요 동물병원","latitude":37.5605425,"longitude":127.0191179},"29":{"tel":"02-375-7222","location":"서울특별시 마포구 월드컵북로 336 (상암동)","name":"상암동물병원","latitude":37.5760616,"longitude":126.8946837},"30":{"tel":"031-716-7975","location":"경기도 성남시 분당구 정자로 80, 1층 (정자동, 정자프라자)","name":"그레이트 동물병원","latitude":37.363161,"longitude":127.1137946},"31":{"tel":"031-875-1559","location":"경기도 의정부시 평화로 238 (호원동)","name":"럭키동물병원","latitude":37.7133854,"longitude":127.0478749},"32":{"tel":"351-3393","location":"경기도 화성시 우정읍 조암남로 22","name":"우동물병원","latitude":37.0830587,"longitude":126.8180144},"33":{"tel":"031-429-7575","location":"경기도 안양시 동안구 흥안대로 113 (호계동)","name":"한빛동물병원","latitude":37.3703765,"longitude":126.9572803},"34":{"tel":"031-941-2422","location":"경기도 파주시 새꽃로 62, 베스트프라자 1층 112호 (금촌동)","name":"고려동물병원","latitude":37.7554803,"longitude":126.7689637},"35":{"tel":"0325727475","location":"인천광역시 서구 가정로 295 (석남동)","name":"진현우동물병원","latitude":37.5113926,"longitude":126.6724191},"36":{"tel":"02-2213-8875","location":"서울특별시 동대문구 답십리로 140, 세기프라자 2층 211호 (답십리동)","name":"더케이동물병원","latitude":37.5724792,"longitude":127.0556603},"37":{"tel":"031-239-3303","location":"경기도 수원시 권선구 정조로514번길 1, 1층 (세류동)","name":"순풍동물병원","latitude":37.2552664,"longitude":127.0115216},"38":{"tel":"02-6954-7522","location":"서울특별시 마포구 대흥로24길 24, 마포프레스티지자이상가 B동 107호 (염리동)","name":"서울준동물병원","latitude":37.5542792,"longitude":126.9469524},"39":{"tel":"302-3275","location":"서울특별시 서대문구 응암로 66 (북가좌동)","name":"두리틀동물병원","latitude":37.578842,"longitude":126.9108194},"40":{"tel":"02-3144-7582","location":"서울특별시 서대문구 연희로 114, 내풍빌딩 지층 (연희동)","name":"에이플러스 동물병원","latitude":37.5678817,"longitude":126.9319372},"41":{"tel":"031-682-2470","location":"경기도 평택시 안중읍 안중로99번길 13-1","name":"오암동물병원","latitude":36.9899166,"longitude":126.927401},"42":{"tel":"02-987-7959","location":"서울특별시 강북구 도봉로 202 (미아동)","name":"위즈동물병원","latitude":37.6267469,"longitude":127.0263209},"43":{"tel":"767-0079","location":"경기도 광주시 태봉로 26, 101호 (태전동, 대한상가)","name":"견우동물병원","latitude":37.3910266,"longitude":127.2301204},"44":{"tel":"02-388-8275","location":"경기도 고양시 덕양구 삼송로 92 (삼송동, 우영프라자 2층)","name":"삼송사랑 동물의료센터","latitude":37.6508365,"longitude":126.884368},"45":{"tel":"845-0780","location":"서울특별시 영등포구 도신로 186, 2층 (신길동)","name":"온누리 종합동물병원","latitude":37.5108358,"longitude":126.9120532},"46":{"tel":"379-7575","location":"서울특별시 종로구 진흥로 477-1 (신영동)","name":"월드펫동물병원","latitude":37.6060728,"longitude":126.960808},"47":{"tel":"031-322-8875","location":"경기도 용인시 처인구 원삼면 죽양대로 1982","name":"김재원 동물병원","latitude":37.2136915,"longitude":127.3224122},"48":{"tel":"031-831-3531","location":"경기도 화성시 동탄반석로 156 (반송동, 동탄하이페리온)","name":"24시동탄윌동물의료센터","latitude":37.2023358,"longitude":127.0715531},"49":{"tel":"02-2232-9702","location":"서울특별시 중구 다산로 83-1, 3층 (신당동)","name":"애니컴 메디컬센터","latitude":37.5520755,"longitude":127.0080492},"50":{"tel":"031-874-7533","location":"경기도 의정부시 외미로 91, 1층 (호원동)","name":"하트만 동물병원","latitude":37.7245362,"longitude":127.0454726},"51":{"tel":"3676-1190","location":"서울특별시 종로구 지봉로 96-3 (숭인동)","name":"우리동물병원","latitude":37.5787079,"longitude":127.0156547},"52":{"tel":"552-3369","location":"인천광역시 계양구 계양대로 96 (작전동)","name":"신통방통 동물병원","latitude":37.5324173,"longitude":126.7229083},"53":{"tel":"2652-7515","location":"서울특별시 강서구 등촌로 55, 신진통상빌딩 (화곡동)","name":"서울플러스종합동물병원","latitude":37.5348081,"longitude":126.8632647},"54":{"tel":"900-9929","location":"서울특별시 도봉구 도봉로 469 (쌍문동)","name":"퓨리나동물병원","latitude":37.6490105,"longitude":127.0255339},"55":{"tel":"032-819-2852","location":"인천광역시 연수구 먼우금로 189 (청학동, 소망글로벌)","name":"웰 동물병원","latitude":37.4146435,"longitude":126.6758695},"56":{"tel":"3491-7060","location":"서울특별시 도봉구 도당로 63 (방학동)","name":"화신종합동물병원","latitude":37.6638042,"longitude":127.034672},"57":{"tel":"031-382-0011","location":"경기도 안양시 동안구 시민대로 300, 지하1층 (관양동, 평촌이마트)","name":"쿨펫동물병원","latitude":37.3947858,"longitude":126.9641191},"58":{"tel":"662-8222","location":"경기도 평택시 추담로 102 (이충동)","name":"맑은숲동물병원","latitude":37.0616786,"longitude":127.0712457},"59":{"tel":"070-8807-8375","location":"경기도 용인시 처인구 백암면 백암로185번길 46","name":"마리동물의료센터","latitude":37.1642302,"longitude":127.371815},"60":{"tel":"02-338-2475","location":"서울특별시 마포구 양화로 72, 효성해링턴타워 101동 제1층 121,122호 (서교동)","name":"아이엠 동물병원","latitude":37.5508025,"longitude":126.9167218},"61":{"tel":"321-7510","location":"경기도 용인시 처인구 백옥대로 1058, 남곡빌딩 (김량장동)","name":"용인센트럴동물병원","latitude":37.2302958,"longitude":127.2106182},"62":{"tel":"656-0524","location":"경기도 평택시 중앙로 141 (비전동)","name":"코리아동물병원","latitude":36.9927665,"longitude":127.0987239},"63":{"tel":"929-5496","location":"서울특별시 성북구 동소문로 66 (동소문동3가)","name":"나래종합동물병원","latitude":37.5914069,"longitude":127.0129836},"64":{"tel":"8017-5575","location":"경기도 성남시 분당구 동판교로 226, 204, 205, 206호 (삼평동, 봇들마을4단지아파트)","name":"판교 행복한 동물병원","latitude":37.4035243,"longitude":127.1179598},"65":{"tel":"031-360-7588","location":"경기도 의왕시 부곡중앙로 3-3 (삼동)","name":"라포레동물메디컬센터","latitude":37.3211938,"longitude":126.9493604},"66":{"tel":"455-7570","location":"서울특별시 광진구 광나루로 601 (광장동)","name":"쥬라기동물병원","latitude":37.5421019,"longitude":127.0952248},"67":{"tel":"0322030072","location":"인천광역시 미추홀구 토금중로 36 (용현동)","name":"페트로 동물병원","latitude":37.452767,"longitude":126.6372},"68":{"tel":"02-2607-7582","location":"서울특별시 양천구 신월로 124, 1층 (신월동)","name":"신월동물병원","latitude":37.5162836,"longitude":126.8377617},"69":{"tel":"455-0077","location":"서울특별시 광진구 천호대로 642-1 (능동)","name":"애플동물병원","latitude":37.5531954,"longitude":127.0883177},"70":{"tel":"031-762-8875","location":"경기도 광주시 파발로 107, 남성빌딩 (경안동)","name":"바른동물병원","latitude":37.4134784,"longitude":127.2588133},"71":{"tel":"02-476-7582","location":"서울특별시 강동구 양재대로 1601 (천호동, 장수빌딩)","name":"안단테 동물병원","latitude":37.5485608,"longitude":127.1433475},"72":{"tel":"02-3412-0067","location":"서울특별시 강남구 일원로3길 38, 1층 (일원동)","name":"서경석동물병원","latitude":37.4921005,"longitude":127.0834262},"73":{"tel":"031-996-7975","location":"경기도 김포시 초당로16번길 75 (장기동)","name":"하나로 양한방 동물병원","latitude":37.6399226,"longitude":126.6751831},"74":{"tel":"031-967-8275","location":"경기도 고양시 덕양구 은빛로 45, 화정꽃무리조합프라자 202호 (화정동)","name":"센트럴동물병원","latitude":37.6381351,"longitude":126.8329092},"75":{"tel":"02-813-7579","location":"서울특별시 동작구 상도로 43, 1층 (대방동, 정원빌딩)","name":"피닉스동물병원","latitude":37.5000152,"longitude":126.9254758},"76":{"tel":"393-0075","location":"서울특별시 서대문구 신촌로 289-1 (북아현동)","name":"북아현동물병원","latitude":37.5575532,"longitude":126.9582904},"77":{"tel":"02-6403-1750","location":"서울특별시 강동구 천중로49길 4 (길동)","name":"사랑동물병원","latitude":37.5411898,"longitude":127.1430675},"78":{"tel":"02-832-0081","location":"서울특별시 관악구 봉천로 232 (신림동)","name":"예일동물병원","latitude":37.4892557,"longitude":126.9272258},"79":{"tel":"765-9988","location":"인천광역시 중구 개항로 68 (경동)","name":"경동동물병원","latitude":37.4719678,"longitude":126.6299435},"80":{"tel":"462-0070","location":"인천광역시 남동구 만수서로 60 (만수동)","name":"메이동물병원","latitude":37.4614379,"longitude":126.7327179},"81":{"tel":"883-6363","location":"경기도 여주시 세종로 27-1, 푸른동물병원 (홍문동)","name":"푸른동물병원","latitude":37.2953413,"longitude":127.6368689},"82":{"tel":"032-666-7975","location":"경기도 부천시 부일로 447-1 (심곡동)","name":"큐피트동물병원","latitude":37.4864466,"longitude":126.7799923},"83":{"tel":"031-214-5527","location":"경기도 수원시 영통구 중부대로 263, 2층 (원천동)","name":"수원종합동물병원","latitude":37.2747512,"longitude":127.0447905},"84":{"tel":"031-708-8875","location":"경기도 성남시 분당구 중앙공원로39번길 49, 서현 지엔느 108호 (서현동)","name":"분당중앙 동물병원","latitude":37.3838169,"longitude":127.1247574},"85":{"tel":"031-8055-8440","location":"경기도 화성시 동탄순환대로 708, 1동 204호 (영천동)","name":"파트너 동물의료센터","latitude":37.2079843,"longitude":127.1104215},"86":{"tel":"707-7599","location":"경기도 성남시 분당구 운중로 233, 201호 (판교동,한솔플라자)","name":"정원 양한방동물병원","latitude":37.3900451,"longitude":127.0889859},"87":{"tel":"031-853-7550","location":"경기도 의정부시 부용로 187 (신곡동)","name":"하나동물병원","latitude":37.7514505,"longitude":127.077965},"88":{"tel":"031-959-8600","location":"경기도 파주시 법원읍 술이홀로 1409","name":"카라동물병원","latitude":37.8933069,"longitude":126.8799949},"89":{"tel":"02-2652-1865","location":"서울특별시 양천구 신목로 78 (신정동)","name":"리더스 동물병원","latitude":37.5216472,"longitude":126.8742392},"90":{"tel":"031-297-7556","location":"경기도 화성시 봉담읍 진등1길 72","name":"서수원동물병원","latitude":37.2213348,"longitude":126.9504042},"91":{"tel":"712-0707","location":"경기도 성남시 분당구 미금로 48, 오성프라자 113호 (구미동)","name":"나라 동물병원","latitude":37.3378625,"longitude":127.116555},"92":{"tel":"031-297-2975","location":"경기도 수원시 장안구 서부로 2132 (율전동)","name":"김성록동물병원","latitude":37.298633,"longitude":126.9721763},"93":{"tel":"465-7582","location":"서울특별시 광진구 군자로 84 (군자동)","name":"보람동물병원","latitude":37.5505344,"longitude":127.0711736},"94":{"tel":"031-716-9001","location":"경기도 성남시 분당구 미금로 43, 정운빌딩 1층 (구미동)","name":"한국동물선진의료연구소(KASMINE) 동물심혈관신장센터","latitude":37.3371237,"longitude":127.1159767},"95":{"tel":"031-251-0082","location":"경기도 수원시 장안구 정조로921번길 3 (영화동)","name":"북문다솜동물병원","latitude":37.2898261,"longitude":127.01317},"96":{"tel":"493-3535","location":"경기도 안산시 단원구 신길로 8, 1층 104-1호 (신길동)","name":"우리펫동물병원","latitude":37.3308981,"longitude":126.786821},"97":{"tel":"596-1175","location":"서울특별시 서초구 서초대로 325 (서초동,지상1층)","name":"교대동물병원","latitude":37.4949795,"longitude":127.0170459},"98":{"tel":"392-8850","location":"경기도 군포시 산본로 394, 1동 108,109호 (산본동, 대림프라자)","name":"제일동물병원","latitude":37.3652655,"longitude":126.9296396},"99":{"tel":"512-2575","location":"서울특별시 강남구 삼성로 573 (삼성동)","name":"마이펫동물의료센터","latitude":37.5125572,"longitude":127.0531888},"100":{"tel":"031-985-5075","location":"경기도 김포시 김포대로802번길 8 (사우동)","name":"이레동물병원","latitude":37.6182001,"longitude":126.7243174},"101":{"tel":"737-8375","location":"서울특별시 서대문구 통일로 392 (홍제동)","name":"한솔동물병원","latitude":37.5849182,"longitude":126.948658},"102":{"tel":"676-7584","location":"경기도 부천시 평천로 718 (삼정동)","name":"햇빛 동물병원","latitude":37.5149204,"longitude":126.7707323},"103":{"tel":"772-7533","location":"인천광역시 중구 우현로 51 (내동)","name":"참 동물병원","latitude":37.4718575,"longitude":126.6284015},"104":{"tel":"031-443-1280","location":"경기도 안양시 만안구 박달로 512 (박달동)","name":"바우동물병원","latitude":37.4024279,"longitude":126.9095392},"105":{"tel":"031-311-4148","location":"경기도 시흥시 삼미시장1길 19 (신천동)","name":"청안동물병원","latitude":37.4405953,"longitude":126.7839063},"106":{"tel":"031-404-8566","location":"경기도 시흥시 월곶중앙로 87-1, 101호 (월곶동)","name":"윤슬동물병원","latitude":37.389712,"longitude":126.7356951},"107":{"tel":"031-681-2406","location":"경기도 평택시 안중읍 안중로 94, 105동 (평창빌딩)","name":"정동물병원","latitude":36.9885107,"longitude":126.9270393},"108":{"tel":"031-847-7720","location":"경기도 양주시 고읍로 166, 1,2층 전부호 (만송동)","name":"로뎀나무 동물의료센터","latitude":37.7913345,"longitude":127.0875324},"109":{"tel":"2694-4821","location":"서울특별시 강서구 화곡로 205 (화곡동, 대한동물병원)","name":"대한동물병원","latitude":37.5438685,"longitude":126.8430952},"110":{"tel":"031-8003-7596","location":"경기도 화성시 외삼미로 166 (반송동)","name":"퍼스트동물병원","latitude":37.1994686,"longitude":127.0617344},"111":{"tel":"02-518-7500","location":"서울특별시 강서구 화곡로 371 (등촌동)","name":"강서YD동물의료센터","latitude":37.5569589,"longitude":126.8521935},"112":{"tel":"408-8584","location":"경기도 안산시 상록구 용신로 266 (사동)","name":"도란도란동물병원","latitude":37.3030166,"longitude":126.851928},"113":{"tel":"031-840-0075","location":"경기도 의정부시 추동로 13 (신곡동)","name":"오즈동물병원","latitude":37.7431321,"longitude":127.0574825},"114":{"tel":"22037975","location":"서울특별시 송파구 삼학사로 88, 금보 2층 (석촌동)","name":"잠실베스트동물병원 수술재활센터","latitude":37.5049813,"longitude":127.0974088},"115":{"tel":"357-8668","location":"경기도 화성시 남양읍 남양성지로 28","name":"수성동물병원","latitude":37.2053531,"longitude":126.8070572},"116":{"tel":"031-671-9323","location":"경기도 안성시 미양면 안성맞춤대로 586","name":"한국양봉농협 동물병원","latitude":36.9721285,"longitude":127.2523955},"117":{"tel":"721-7582","location":"경기도 성남시 수정구 수정로 160 (신흥동, 신흥상가)","name":"가나동물병원","latitude":37.4424857,"longitude":127.137834},"118":{"tel":"396-5525","location":"서울특별시 서대문구 통일로 463 (홍제동)","name":"홍제동물병원","latitude":37.5896348,"longitude":126.9427443},"119":{"tel":"02-2212-5233","location":"서울특별시 동대문구 한천로 94, 1층 (장안동)","name":"뉴월드동물병원","latitude":37.5696108,"longitude":127.0645463},"120":{"tel":"032-568-0922","location":"인천광역시 서구 청라루비로134번길 6-4 (경서동)","name":"청라 루비 동물병원","latitude":37.536749,"longitude":126.640949},"121":{"tel":"332-3070","location":"경기도 용인시 처인구 명지로 17 (역북동)","name":"용인동물병원","latitude":37.2344617,"longitude":127.1890853},"122":{"tel":"032-811-7553","location":"인천광역시 연수구 용담로 145 (연수동)","name":"따뜻한 동물병원","latitude":37.413256,"longitude":126.6803273},"123":{"tel":"031-733-9325","location":"경기도 성남시 중원구 산성대로 498, 1층 102호 (은행동)","name":"동물병원 Dr.정","latitude":37.4555557,"longitude":127.1625911},"124":{"tel":"031-632-3836","location":"경기도 이천시 모가면 진상미로 1324","name":"우리소 동물병원 『산업동물에 대한 출장진료를 전문으로 함』","latitude":37.1743284,"longitude":127.4801563},"125":{"tel":"02-2643-2777","location":"서울특별시 양천구 등촌로 114, 목동한강팰리스 1층 (목동)","name":"가온동물병원","latitude":37.5401691,"longitude":126.8640851},"126":{"tel":"031-557-9009","location":"경기도 구리시 검배로 36, 현주Ifriend빌딩 101호 (수택동)","name":"구리동물병원","latitude":37.5979618,"longitude":127.143102},"127":{"tel":"032-752-4575","location":"인천광역시 중구 자연대로 40, 109호 (중산동, 비젼프라자II)","name":"숲속동물병원","latitude":37.4889644,"longitude":126.5601377},"128":{"tel":"746-8990","location":"경기도 성남시 중원구 희망로 360, 10호 (상대원동)","name":"한국동물병원","latitude":37.4378278,"longitude":127.1583856},"129":{"tel":"571-9634","location":"경기도 남양주시 진접읍 해밀예당1로 171, 108호","name":"진접동물병원","latitude":37.7198554,"longitude":127.1970995},"130":{"tel":"521-7573","location":"경기도 남양주시 와부읍 덕소로 218","name":"해피동물병원","latitude":37.5794859,"longitude":127.2204321},"131":{"tel":"02-354-7544","location":"서울특별시 은평구 연서로 317 (불광동, 동윤빌딩)","name":"둘레길동물병원","latitude":37.6237624,"longitude":126.9277008},"132":{"tel":"031-314-0706","location":"경기도 시흥시 수인로 3376-1, 1층 (신천동)","name":"펫츠나라 동물병원","latitude":37.4412845,"longitude":126.783885},"133":{"tel":"569-7582","location":"경기도 구리시 동구릉로 99 (인창동)","name":"사랑우리 愛 동물병원","latitude":37.608798,"longitude":127.1349406},"134":{"tel":"031-275-7579","location":"경기도 용인시 기흥구 연원로 1, 101호 (마북동, 연원마을LG아파트상가)","name":"구성동물병원","latitude":37.3015935,"longitude":127.107839},"135":{"tel":"415-7579","location":"서울특별시 송파구 올림픽로 435, 상가동 1층 36호 (신천동, 파크리오)","name":"리오동물병원","latitude":37.5205497,"longitude":127.1061782},"136":{"tel":"031-987-7582","location":"경기도 김포시 통진읍 김포대로 2025","name":"한마음동물병원","latitude":37.6826285,"longitude":126.6184827},"137":{"tel":"989-8575","location":"서울특별시 성북구 삼양로 84 (길음동)","name":"우리동물병원","latitude":37.6108646,"longitude":127.0225948},"138":{"tel":"02-941-5575","location":"서울특별시 성북구 길음로13길 22, 103호, 104호 (길음동, 길음7구역두산위브아파트)","name":"스마트동물병원 성북길음점","latitude":37.6097692,"longitude":127.0188371},"139":{"tel":"02-938-1122","location":"서울특별시 노원구 한글비석로 272, 101호 (중계동, 중원코아빌딩)","name":"참사랑동물병원","latitude":37.6517383,"longitude":127.0775982},"140":{"tel":"1577-9291","location":"경기도 하남시 신평로168번길 56, K 빌딩 1층 103호 (신장동)","name":"고려동물병원","latitude":37.5465187,"longitude":127.2146586},"141":{"tel":"031-822-6619","location":"경기도 의정부시 오목로 215, 1층 104호 (민락동, 송림프라자)","name":"나라동물병원","latitude":37.7455138,"longitude":127.0990623},"142":{"tel":"031-292-7504","location":"경기도 수원시 권선구 서수원로523번길 30-23, 1층 (금곡동)","name":"티움동물병원","latitude":37.2713699,"longitude":126.9571522},"143":{"tel":"02-2039-7572","location":"서울특별시 성동구 왕십리로 410 (하왕십리동, 센트라스)","name":"다온동물병원","latitude":37.5661143,"longitude":127.0276256},"144":{"tel":"718-0365","location":"경기도 성남시 분당구 미금일로90번길 32, 125호 (구미동)","name":"365동물병원 분당점","latitude":37.3489422,"longitude":127.1104602},"145":{"tel":"03180086212","location":"경기도 평택시 진위면 동천길 132-93","name":"경기도 야생동물 구조관리센터","latitude":37.1319227,"longitude":127.1184401},"146":{"tel":"861-0075","location":"서울특별시 구로구 구로동로 111-1 (구로동)","name":"푸른동물병원","latitude":37.488603,"longitude":126.8843101},"147":{"tel":"031-267-8100","location":"경기도 수원시 권선구 동수원로82번길 7-3, 1층 (곡반정동)","name":"튼튼동물병원","latitude":37.2381883,"longitude":127.027807},"148":{"tel":"304-5553","location":"서울특별시 은평구 응암로 226 (응암동)","name":"한얼동물병원","latitude":37.592056,"longitude":126.9179327},"149":{"tel":"031)395-0079","location":"경기도 군포시 고산로 686 (산본동)","name":"산본중앙동물병원","latitude":37.3709782,"longitude":126.9348166},"150":{"tel":"401-0075","location":"서울특별시 송파구 오금로 498 (거여동)","name":"노아동물병원","latitude":37.4929977,"longitude":127.1439043},"151":{"tel":"02-2244-7755","location":"서울특별시 동대문구 망우로 120 (휘경동)","name":"심재웅동물병원","latitude":37.5911099,"longitude":127.0665375},"152":{"tel":"484-8414","location":"서울특별시 강동구 구천면로 237 (천호동)","name":"세종동물병원","latitude":37.5417601,"longitude":127.1304316},"153":{"tel":"614-7582","location":"경기도 부천시 부흥로 196 (중동)","name":"하노바동물병원","latitude":37.4959456,"longitude":126.7643594},"154":{"tel":"02-875-7579","location":"서울특별시 관악구 남부순환로 1811, 신원메트로빌 (봉천동)","name":"서울허브동물병원","latitude":37.4817614,"longitude":126.9514522},"155":{"tel":"942-4883","location":"서울특별시 성북구 길음로 33 (길음동, 길음뉴타운 제상가비동 제지2층 25호)","name":"카카오 N 동물병원","latitude":37.6075476,"longitude":127.017939},"156":{"tel":"02-2281-8122","location":"서울특별시 성동구 무학로 16 (홍익동)","name":"라임동물병원","latitude":37.5655421,"longitude":127.0303288},"157":{"tel":"772-2727","location":"경기도 양평군 양평읍 미리내길 96","name":"유일동물병원","latitude":37.4810907,"longitude":127.5348018},"158":{"tel":"031-705-2475","location":"경기도 성남시 분당구 서현로255번길 1, 1층 (서현동)","name":"미래동물의료센터","latitude":37.3845835,"longitude":127.1296726},"159":{"tel":"031-941-7777","location":"경기도 파주시 아동로 11-1 (금촌동)","name":"금촌종합동물병원","latitude":37.7644506,"longitude":126.7758304},"160":{"tel":"454-9975","location":"서울특별시 광진구 능동로 334 (중곡동)","name":"방주종합동물병원","latitude":37.559332,"longitude":127.0809564},"161":{"tel":"2208-0329","location":"서울특별시 중랑구 망우로 315, 2층 (상봉동)","name":"닥터 아이펫 동물병원","latitude":37.5972337,"longitude":127.0874871},"162":{"tel":"463-9066","location":"인천광역시 남동구 백범로 260 (간석동)","name":"세우리동물병원","latitude":37.4611237,"longitude":126.7205705},"163":{"tel":"707-2235","location":"서울특별시 용산구 원효로 51, 119호 (산천동, 삼성테마트)","name":"민트동물병원","latitude":37.5340274,"longitude":126.9504158},"164":{"tel":"02-844-7775","location":"서울특별시 영등포구 도신로 252 (신길동)","name":"한가람동물의료센터","latitude":37.5134335,"longitude":126.9185436},"165":{"tel":"414-7588","location":"서울특별시 송파구 올림픽로 88, 올림픽타워 101호 (잠실동)","name":"희망종합동물병원","latitude":37.5114219,"longitude":127.0805355},"166":{"tel":"605-5119","location":"경기도 성남시 분당구 야탑로 24, 101호 (야탑동, 덕인빌딩)","name":"분당24시동물의료센터","latitude":37.408569,"longitude":127.1216004},"167":{"tel":"394-0816","location":"경기도 군포시 산본천로 212 (산본동)","name":"산본동물병원","latitude":37.3708891,"longitude":126.9410476},"168":{"tel":"031-897-7577","location":"경기도 용인시 수지구 현암로 135, 베스트프라자 2층 (죽전동)","name":"서울앤탑 동물병원","latitude":37.3319561,"longitude":127.1244454},"169":{"tel":"8003-7595","location":"경기도 화성시 동탄원천로 354-11, 106~107호 (능동)","name":"해솔동물병원","latitude":37.2187911,"longitude":127.0579175},"170":{"tel":"031-254-7518","location":"경기도 수원시 장안구 수성로350번길 4 (영화동)","name":"귀족동물병원","latitude":37.2927804,"longitude":127.0102549},"171":{"tel":"444-7533","location":"서울특별시 광진구 아차산로 493 (광장동)","name":"동서울동물병원","latitude":37.5418033,"longitude":127.0962089},"172":{"tel":"031-498-7582","location":"경기도 시흥시 중심상가로 146, 105호 (정왕동, 한일프라자)","name":"정다운동물병원","latitude":37.3467507,"longitude":126.7319453},"173":{"tel":"031-772-3332","location":"경기도 양평군 양평읍 양근로 214","name":"양평가축병원","latitude":37.488344,"longitude":127.4918577},"174":{"tel":"031-747-0406","location":"경기도 성남시 중원구 희망로 402, 지하1층 (금광동)","name":"해오름동물병원","latitude":37.4412887,"longitude":127.1601751},"175":{"tel":"02-540-6303","location":"서울특별시 강남구 압구정로 332 (신사동, 1층,2층)","name":"압구정메이트동물병원","latitude":37.5282088,"longitude":127.0378383},"176":{"tel":"2038-8253","location":"서울특별시 광진구 천호대로 623-1, 1층 (중곡동)","name":"서울동물병원","latitude":37.5545579,"longitude":127.087089},"177":{"tel":"02-2213-0075","location":"서울특별시 동대문구 장한로 44, 1층 (장안동)","name":"아인스동물병원","latitude":37.5650741,"longitude":127.0674125},"178":{"tel":"031-241-8575","location":"경기도 수원시 장안구 월드컵로 425-2 (연무동)","name":"나은동물병원","latitude":37.2934192,"longitude":127.0255762},"179":{"tel":"686-7582","location":"경기도 평택시 안중읍 안현로서6길 38","name":"현화동물병원","latitude":36.9848223,"longitude":126.9251439},"180":{"tel":"031-708-3100","location":"경기도 성남시 분당구 판교로 446, 108호 (이매동, 그린프라자)","name":"수아동물병원","latitude":37.4051349,"longitude":127.1233396},"181":{"tel":"031-553-7585","location":"경기도 남양주시 도농로 71 (도농동, 부영사랑으로7단지아파트)","name":"탑 동물병원","latitude":37.6109462,"longitude":127.1555593},"182":{"tel":"02-949-0975","location":"서울특별시 노원구 마들로3길 15, 월계이마트 2층 (월계동)","name":"웰니스 동물병원","latitude":37.6273469,"longitude":127.0618674},"183":{"tel":"2274-8558","location":"서울특별시 중구 퇴계로 226 (필동2가)","name":"윤신근박사동물병원","latitude":37.5616377,"longitude":126.9968583},"184":{"tel":"716-8275","location":"경기도 성남시 분당구 정자로 78 (정자동)","name":"상록 동물병원","latitude":37.3631587,"longitude":127.1135177},"185":{"tel":"3917502","location":"서울특별시 종로구 자하문로 305 (홍지동)","name":"올리브동물병원","latitude":37.599291,"longitude":126.958987},"186":{"tel":"031-8027-3999","location":"경기도 하남시 미사강변북로30번길 9, 1층 (망월동)","name":"미사 다나을 동물병원","latitude":37.5713654,"longitude":127.1818709},"187":{"tel":"416-7584","location":"경기도 안산시 상록구 석호로 54 (사동)","name":"애니동물병원","latitude":37.3065919,"longitude":126.8472676},"188":{"tel":"02-987-7588","location":"서울특별시 강북구 솔샘로 203-2, 1층 (미아동)","name":"스마트 동물병원","latitude":37.6203114,"longitude":127.0153645},"189":{"tel":"031-225-7533","location":"경기도 수원시 권선구 정조로 596 (세류동)","name":"두리동물병원","latitude":37.2619537,"longitude":127.0141789},"190":{"tel":"330-0075","location":"인천광역시 부평구 체육관로 40 (삼산동)","name":"삼산종합동물병원","latitude":37.5082776,"longitude":126.7361378},"191":{"tel":"990-7588","location":"서울특별시 강북구 도봉로98길 56 (번동)","name":"동물을사랑하는사람들","latitude":37.6408562,"longitude":127.0327749},"192":{"tel":"382-7511","location":"서울특별시 은평구 진관4로 87, 629동 116호 (진관동, 은평뉴타운상림마을)","name":"한빛동물병원","latitude":37.6479593,"longitude":126.9288582},"193":{"tel":"749-8275","location":"서울특별시 용산구 신흥로 36-1 (용산동2가)","name":"한사랑동물병원","latitude":37.5417101,"longitude":126.9874142},"194":{"tel":"02-459-5955","location":"서울특별시 강남구 광평로 196, 1층 109호 (수서동, 제이스프라자)","name":"수서동물병원","latitude":37.484087,"longitude":127.0939285},"195":{"tel":"02-887-1575","location":"서울특별시 관악구 남부순환로 1678, 1, 2층 (신림동)","name":"이로동물의료센터","latitude":37.4842283,"longitude":126.9368236},"196":{"tel":"031-952-7576","location":"경기도 파주시 문산읍 방촌로 1692","name":"로뎀동물병원","latitude":37.8641134,"longitude":126.7829651},"197":{"tel":"02-877-5599","location":"서울특별시 관악구 신림로 157-1 (신림동)","name":"신림종합동물병원","latitude":37.4730904,"longitude":126.9329041},"198":{"tel":"02-766-7577","location":"서울특별시 성북구 성북로 66, 1층 (성북동)","name":"앙리동물병원","latitude":37.5934691,"longitude":127.0017334},"199":{"tel":"02-832-7975","location":"서울특별시 영등포구 가마산로 442, 상가동 B207, 208호 (신길동, 래미안프레비뉴)","name":"라이프 동물병원","latitude":37.5049213,"longitude":126.9081694},"200":{"tel":"984-8275","location":"경기도 김포시 돌문로 83-2 (사우동)","name":"중앙애견종합병원","latitude":37.6210799,"longitude":126.7141914},"201":{"tel":"912-6555","location":"서울특별시 성북구 오패산로 22 (하월곡동)","name":"포유동물병원","latitude":37.6042246,"longitude":127.0377614},"202":{"tel":"935-7588","location":"서울특별시 노원구 노원로34길 76 (상계동)","name":"한강동물병원","latitude":37.6624741,"longitude":127.0660875},"203":{"tel":"985-7525","location":"서울특별시 강북구 오현로 194 (번동, 덕수빌딩 1층)","name":"강북동물병원","latitude":37.6288176,"longitude":127.0399072},"204":{"tel":"031-767-7588","location":"경기도 광주시 파발로 161-1 (경안동)","name":"모란동물병원","latitude":37.4143079,"longitude":127.2527214},"205":{"tel":"070-4349-3357","location":"서울특별시 송파구 석촌호수로 104, 1층 (잠실동)","name":"도그마루 동물병원","latitude":37.5077691,"longitude":127.08847},"206":{"tel":"428-0275","location":"인천광역시 남동구 남동대로370번길 113, 101호 (논현동)","name":"조은동물병원","latitude":37.4138887,"longitude":126.712039},"207":{"tel":"466-7975","location":"인천광역시 남동구 인하로 608 (구월동)","name":"애니힐동물병원","latitude":37.4426762,"longitude":126.7142687},"208":{"tel":"929-1212","location":"서울특별시 성북구 종암로 91(종암동)","name":"미소동물병원","latitude":37.5983955,"longitude":127.0343699},"209":{"tel":"031-8042-6016","location":"경기도 시흥시 능곡번영길 22, 304,305호 (능곡동)","name":"이산동물의료센터","latitude":37.3730464,"longitude":126.8076225},"210":{"tel":"032-511-6836","location":"인천광역시 부평구 부평대로 138, 206~207호 (부평동)","name":"부평종합고양이의료센터","latitude":37.5037971,"longitude":126.7220018},"211":{"tel":"031-876-7582","location":"경기도 의정부시 평화로 508, 1층 (의정부동)","name":"바라다동물병원","latitude":37.7374517,"longitude":127.0480051},"212":{"tel":"2606-1990","location":"서울특별시 양천구 지양로 52 (신월동)","name":"일오삼동물병원","latitude":37.5205267,"longitude":126.8349454},"213":{"tel":"263-7588","location":"경기도 용인시 수지구 풍덕천로 135, 103호 (풍덕천동, 요진타워)","name":"세브란스동물병원","latitude":37.3238239,"longitude":127.096487},"214":{"tel":"031-713-5004","location":"경기도 성남시 분당구 성남대로171번길 17, 씨티밸리 101호 (금곡동)","name":"엔젤동물병원","latitude":37.3511517,"longitude":127.1068142},"215":{"tel":"032-505-7262","location":"인천광역시 부평구 경인로 1069, 1층 (부개동)","name":"주주종합동물병원","latitude":37.4868686,"longitude":126.738928},"216":{"tel":"031-767-0175","location":"경기도 광주시 곤지암읍 광여로 779-2","name":"도그파파","latitude":37.3821203,"longitude":127.4050658},"217":{"tel":"031-362-5475","location":"경기도 안산시 단원구 초지로 114, 주공프라자 111,112호 (초지동)","name":"세온동물병원","latitude":37.3088315,"longitude":126.8152911},"218":{"tel":"975-1475","location":"경기도 고양시 일산서구 고양대로 688, 201호 (일산동)","name":"이용철동물병원","latitude":37.6836923,"longitude":126.7723637},"219":{"tel":"996-1007","location":"서울특별시 강북구 삼양로 499 (수유동)","name":"애니케어 동물병원 수유점","latitude":37.6477559,"longitude":127.0142786},"220":{"tel":"996-8275","location":"서울특별시 도봉구 도봉로 618, 108호 (창동)","name":"행복한동물병원","latitude":37.6594418,"longitude":127.0417992},"221":{"tel":"032-528-1359","location":"인천광역시 부평구 부평대로 132, 1층 102호 (부평동, 헤리움노블레스)","name":"백마동물병원","latitude":37.5032551,"longitude":126.7220278},"222":{"tel":"752-7779","location":"경기도 성남시 중원구 성남대로 1126, 106호 (성남동, 매가프라자)","name":"모란동물병원","latitude":37.4303531,"longitude":127.1299003},"223":{"tel":"031-372-7550","location":"경기도 화성시 동탄대로시범길 148-22, 디스퀘어상가 203호 (청계동)","name":"리더스동물병원","latitude":37.2004919,"longitude":127.1148748},"224":{"tel":"032-529-9633","location":"인천광역시 부평구 마장로 383 (산곡동)","name":"애나동물병원","latitude":37.5123946,"longitude":126.7035952},"225":{"tel":"2645-7588","location":"서울특별시 양천구 목동서로 77, 현대월드타워 160호 (목동)","name":"가나종합동물병원","latitude":37.5359968,"longitude":126.8780309},"226":{"tel":"031-692-2250","location":"경기도 평택시 오성면 숙성시장길 65 (명성빌라)","name":"한동물병원 (출장진료 전문)","latitude":37.0085844,"longitude":126.9849338},"227":{"tel":"8015-3178","location":"경기도 화성시 동탄솔빛로 48, 103~104호 (반송동, 거택프라자)","name":"21세기동물병원","latitude":37.1931568,"longitude":127.0733803},"228":{"tel":"031-283-0775","location":"경기도 용인시 기흥구 신갈로 85 (신갈동)","name":"강남종합동물병원","latitude":37.2743083,"longitude":127.1054807},"229":{"tel":"02-521-5775","location":"서울특별시 동작구 사당로 196, 1층 102호 (사당동, 거묵프리미엄 상가)","name":"나을동물병원","latitude":37.4849416,"longitude":126.9699092},"230":{"tel":"02-6215-3416","location":"서울특별시 중랑구 망우로 241, 지하1층 (중화동, 영해빌딩)","name":"한국동물영상의학센터","latitude":37.5950457,"longitude":127.0794258},"231":{"tel":"031-255-7975","location":"경기도 수원시 장안구 송원로86번길 4, 1,2층 (조원동)","name":"행복사랑동물병원","latitude":37.3021114,"longitude":127.010129},"232":{"tel":"2607-0022","location":"서울특별시 양천구 오목로 45 (신월동)","name":"양천종합동물병원","latitude":37.5223082,"longitude":126.8426299},"233":{"tel":"031-488-8075","location":"경기도 시흥시 정왕대로 230, 1층 107호 (정왕동, 제일프라자)","name":"24시위드동물병원(정왕동동물의료센터)","latitude":37.3449606,"longitude":126.7384776},"234":{"tel":"02-376-7675","location":"서울특별시 마포구 월드컵북로 218, 2층 (성산동)","name":"키다리 동물병원","latitude":37.5695051,"longitude":126.9050199},"235":{"tel":"2633-9991","location":"서울특별시 영등포구 영등포로 131-2 (당산동1가)","name":"영등포동물병원","latitude":37.521548,"longitude":126.8962885},"236":{"tel":"7687599","location":"경기도 광주시 경안천로 5 (송정동,1층)","name":"동현24시동물병원","latitude":37.4141886,"longitude":127.2608402},"237":{"tel":"0319662777","location":"경기도 고양시 일산동구 고양대로 1139 (식사동)","name":"해밀동물병원","latitude":37.6654734,"longitude":126.8158641},"238":{"tel":"02-885-2130","location":"서울특별시 관악구 봉천로 239, 1층 (봉천동)","name":"보라매동물병원","latitude":37.4895821,"longitude":126.9283692},"239":{"tel":"848-8575","location":"경기도 남양주시 별내면 청학로68번길 13 (삼화빌딩)","name":"사랑동물병원","latitude":37.7085815,"longitude":127.1193493},"240":{"tel":"0314210008","location":"경기도 의왕시 포일로 11, 내손동 2층 (내손동)","name":"우리집동물병원","latitude":37.3886383,"longitude":126.974575},"241":{"tel":"031-986-7588","location":"경기도 김포시 김포한강9로76번길 21, 109호 (구래동, 애플상가)","name":"늘봄동물병원","latitude":37.6443472,"longitude":126.6267963},"242":{"tel":"024247552","location":"서울특별시 송파구 석촌호수로 146, 1층 (삼전동)","name":"행복한 우리아이 동물병원","latitude":37.5068914,"longitude":127.0931858},"243":{"tel":"554-7579,","location":"인천광역시 계양구 오조산공원로 14 (계산동, 홈플러스 2층)","name":"쿨펫동물병원","latitude":37.5395223,"longitude":126.7362044},"244":{"tel":"031-366-7970","location":"경기도 화성시 수노을중앙로 160, 2층 (새솔동)","name":"그린동물병원","latitude":37.2829249,"longitude":126.8190178},"245":{"tel":"031-215-8588","location":"경기도 수원시 영통구 동탄원천로1109번길 100 (매탄동)","name":"라온동물병원","latitude":37.27087,"longitude":127.0534773},"246":{"tel":"02-889-0575","location":"서울특별시 관악구 남부순환로 1747-1 (봉천동)","name":"형제동물의료센터","latitude":37.4823957,"longitude":126.9441889},"247":{"tel":"0319867119","location":"경기도 김포시 사우중로 89, 1층 (북변동, 명승프라자)","name":"수호 동물병원","latitude":37.6226861,"longitude":126.7211374},"248":{"tel":"416-7512","location":"서울특별시 송파구 올림픽로35가길 9, 상가동 2층 207호 (신천동, 잠실 푸르지오 월드마크)","name":"더 샵 동물메디컬센터","latitude":37.5174487,"longitude":127.1036051},"249":{"tel":"885-3347","location":"경기도 여주시 여흥로 97, 중앙동물병원 (창동)","name":"중앙동물병원","latitude":37.295813,"longitude":127.6341866},"250":{"tel":"031-244-0117","location":"경기도 수원시 장안구 수성로 300, 1층 (영화동, 동광빌딩)","name":"한마음 동물의료센터","latitude":37.2910406,"longitude":127.0051193},"251":{"tel":"031-334-6125","location":"경기도 용인시 처인구 중부대로 1307 (역북동)","name":"이리온 동물메디컬센터","latitude":37.2362116,"longitude":127.1901499},"252":{"tel":"031-826-8875","location":"경기도 의정부시  평화로  374 (호원동)","name":"호원종합동물병원","latitude":37.7253279,"longitude":127.0485518},"253":{"tel":"031-425-7588,7580","location":"경기도 안양시 동안구 흥안대로456번길 11, 102호 (평촌동,본프라자)","name":"정수동물병원","latitude":37.3948215,"longitude":126.9764874},"254":{"tel":"032-765-0112","location":"인천광역시 동구 솔빛로 2, 1층 (송현동)","name":"인천종합동물병원","latitude":37.4766095,"longitude":126.6336517},"255":{"tel":"907-1565","location":"서울특별시 강북구 덕릉로 79 (수유동)","name":"동물병원 위드","latitude":37.63481,"longitude":127.0226308},"256":{"tel":"031-679-0551","location":"경기도 용인시 기흥구 동백죽전대로 444 (중동, 쥬네브썬월드빌딩)","name":"쿨펫 동물병원","latitude":37.2780425,"longitude":127.1517093},"257":{"tel":"028071616","location":"서울특별시 금천구 금하로1라길 35, 1층 (독산동)","name":"조아동물병원","latitude":37.4538083,"longitude":126.8903745},"258":{"tel":"031-204-9006","location":"경기도 수원시 영통구 영통로 103 (망포동)","name":"신영통동물병원","latitude":37.237346,"longitude":127.0582309},"259":{"tel":"335-8275","location":"경기도 용인시 처인구 금령로 26 (김량장동)","name":"애견종합병원","latitude":37.2346752,"longitude":127.1989363},"260":{"tel":"031-946-0805","location":"경기도 파주시 가람로21번길 7-5, 401호 (와동동)","name":"행복한고양이동물병원","latitude":37.7341136,"longitude":126.752126},"261":{"tel":"969-0075","location":"서울특별시 성북구 돌곶이로 31 (석관동)","name":"태양 동물병원","latitude":37.607028,"longitude":127.0607051},"262":{"tel":"2666-7990","location":"서울특별시 강서구 마곡서로 133, 712동 102-1호 (마곡동, 마곡엠밸리7단지)","name":"참동물병원","latitude":37.5653882,"longitude":126.8234589},"263":{"tel":"856-4113","location":"서울특별시 금천구 독산로 272 (독산동)","name":"그린동물병원","latitude":37.4709819,"longitude":126.903233},"264":{"tel":"569-0277","location":"경기도 구리시 이문안로 27 (교문동)","name":"건국동물병원","latitude":37.5928594,"longitude":127.1337393},"265":{"tel":"915-5301","location":"서울특별시 성북구 동소문로 302 (하월곡동)","name":"호담동물병원","latitude":37.6067949,"longitude":127.0285412},"266":{"tel":"031-204-0075","location":"경기도 수원시 영통구 청명남로4번길 6, 1층 (영통동)","name":"영통동물병원","latitude":37.2501969,"longitude":127.0736549},"267":{"tel":"031-504-7559","location":"경기도 시흥시 목감둘레로 253-24, 110호 (조남동)","name":"목감시티동물병원","latitude":37.3809566,"longitude":126.8604708},"268":{"tel":"031-272-1199","location":"경기도 용인시 수지구 수지로112번길 11, 1층 104호 (성복동)","name":"정다운종합동물병원","latitude":37.3125999,"longitude":127.0804567},"269":{"tel":"031-765-1100,1133","location":"경기도 광주시 경충대로 1448 (쌍령동)","name":"24시 모란동물 메디컬센터","latitude":37.3993577,"longitude":127.2736816},"270":{"tel":"031-8005-9725","location":"경기도 용인시 기흥구 동백중앙로 177 (중동, 동백씨엘뷰 오피스텔)","name":"리치펫동물병원","latitude":37.2702966,"longitude":127.1537794},"271":{"tel":"591-5991","location":"경기도 남양주시 화도읍 창현로 53","name":"창현동물병원","latitude":37.6459127,"longitude":127.3051579},"272":{"tel":"032-882-8275","location":"인천광역시 미추홀구 낙섬중로 92, 101호, 102호 (용현동)","name":"포인트동물의료센터","latitude":37.4557063,"longitude":126.6407989},"273":{"tel":"02-743-7582","location":"서울특별시 성북구 성북로 27 (성북동1가)","name":"한사랑동물병원","latitude":37.5903631,"longitude":127.0038573},"274":{"tel":"031-879-4650","location":"경기도 양주시 광적면 광적로 119","name":"김동물병원","latitude":37.8289793,"longitude":126.979628},"275":{"tel":"031-719-5725","location":"경기도 성남시 분당구 백현로156번길 17-2 (정자동)","name":"우리동물병원","latitude":37.3713198,"longitude":127.1139728},"276":{"tel":"031-693-8627","location":"경기도 용인시 기흥구 동백5로 21-11, 107호 (중동, 동백훼미리프라자 1)","name":"동백동물병원","latitude":37.277536,"longitude":127.1527797},"277":{"tel":"450-9306","location":"서울특별시 광진구 능동로 216 (능동)","name":"서울어린이대공원동물병원","latitude":37.5495943,"longitude":127.0815904},"278":{"tel":"413-7514","location":"서울특별시 송파구 오금로 126, 105호 (송파동, 레이크 해모로)","name":"호수동물병원","latitude":37.5113678,"longitude":127.1088127},"279":{"tel":"02-783-7580","location":"서울특별시 영등포구 국제금융로 108, 4층 (여의도동, 미라클빌딩)","name":"여의도 동물병원","latitude":37.5187393,"longitude":126.9335845},"280":{"tel":"429-8822","location":"서울특별시 강동구 상일로 13, 1,2층 (상일동)","name":"GD동물병원","latitude":37.5482548,"longitude":127.1731335},"281":{"tel":"809-0075","location":"서울특별시 금천구 벚꽃로 30, 211호 (독산동, 금천롯데캐슬골드파크2차)","name":"금나래동물병원","latitude":37.4582428,"longitude":126.8941761},"282":{"tel":"928-5599","location":"서울특별시 성북구 보문로 137 (보문동2가)","name":"서울종합동물병원","latitude":37.5871126,"longitude":127.0182066},"283":{"tel":"449-0101","location":"서울특별시 송파구 마천로5길 16, 우일빌딩 (오금동)","name":"늘푸른동물병원","latitude":37.5095227,"longitude":127.1272349},"284":{"tel":"031-667-8275","location":"경기도 평택시 송탄로 147, 태광 1층 (이충동)","name":"마음가득동물병원","latitude":37.0569124,"longitude":127.0589981},"285":{"tel":"031-970-9204","location":"경기도 고양시 덕양구 토당로42번길 13-15, 능곡역프라자 103호 (토당동)","name":"작은 친구 동물병원","latitude":37.6203777,"longitude":126.8211133},"286":{"tel":"0325840075","location":"인천광역시 서구 건지로 269 (석남동)","name":"삼성종합동물병원","latitude":37.4994737,"longitude":126.6721825},"287":{"tel":"261-8277","location":"경기도 용인시 수지구 문인로39번길 3-1 (풍덕천동)","name":"대학동물병원","latitude":37.3329136,"longitude":127.0984561},"288":{"tel":"031-911-7585","location":"경기도 고양시 일산서구 하이파크2로 42 (덕이동)","name":"돌봄동물병원","latitude":37.6990684,"longitude":126.7539683},"289":{"tel":"6053-6052","location":"서울특별시 강남구 일원로14길 25, 상가동 102호 (일원동, 푸른마을아파트)","name":"수정동물병원","latitude":37.4838642,"longitude":127.0808681},"290":{"tel":"031-798-7581","location":"경기도 광주시 초월읍 현산로385번길 74-12","name":"광주TNR동물병원(초월)","latitude":37.4159066,"longitude":127.2762346},"291":{"tel":"3491-4748","location":"서울특별시 도봉구 방학로 162 (방학동)","name":"가나동물병원","latitude":37.6627217,"longitude":127.034119},"292":{"tel":"02-3412-7582","location":"서울특별시 강남구 개포로 512 (개포동, 개포종합상가 1층)","name":"개포동물병원","latitude":37.489251,"longitude":127.068816},"293":{"tel":"2615-5014","location":"서울특별시 구로구 고척로 157 (고척동)","name":"개봉동물병원","latitude":37.5034333,"longitude":126.8511297},"294":{"tel":"0313755975","location":"경기도 오산시 내삼미로 83 (수청동)","name":"스마일 동물병원","latitude":37.1696414,"longitude":127.0660143},"295":{"tel":"031-234-8318","location":"경기도 수원시 팔달구 효원로 49 (매산로3가)","name":"가야동물병원","latitude":37.2692258,"longitude":127.0093581},"296":{"tel":"464-4488","location":"인천광역시 남동구 구월로 364 (만수동)","name":"젬마동물병원","latitude":37.4548158,"longitude":126.7310851},"297":{"tel":"0312020119","location":"경기도 수원시 영통구 덕영대로 1509(영통동)","name":"24시수원동물메디컬센터","latitude":37.2461662,"longitude":127.0559382},"298":{"tel":"031-713-8391","location":"경기도 성남시 분당구 정자일로 197, 101호 (정자동, 푸르지오씨티 2차)","name":"세인트존스동물병원","latitude":37.3680412,"longitude":127.1055755},"299":{"tel":"3427-6419","location":"서울특별시 강동구 구천면로 431 (명일동)","name":"피카소동물병원","latitude":37.5502532,"longitude":127.1467508},"300":{"tel":"574-5957","location":"경기도 남양주시 진접읍 장현로 112-1","name":"강아지나라동물병원","latitude":37.7196848,"longitude":127.1841831},"301":{"tel":"02-511-2842","location":"서울특별시 강남구 선릉로 756, 2층 (청담동, 대성빌딩)","name":"이비치 동물치과병원","latitude":37.522269,"longitude":127.0396837},"302":{"tel":"400-0075","location":"서울특별시 송파구 중대로 80, 문정프라자 (문정동)","name":"펫가든동물병원","latitude":37.4917426,"longitude":127.1177535},"303":{"tel":"654-2505","location":"경기도 평택시 문화촌로11번길 51-11 (비전동)","name":"믿음동물병원(출장진료 전문)","latitude":36.9976683,"longitude":127.1129692},"304":{"tel":"031-338-6771","location":"경기도 용인시 처인구 금령로55번길 6, 1층 (김량장동)","name":"용인축협동물병원(산업동물출장진료전문)","latitude":37.2355438,"longitude":127.2025206},"305":{"tel":"031-352-6633","location":"경기도 화성시 향남읍 행정서로2길 28-37","name":"신동물메디컬센터","latitude":37.1312027,"longitude":126.9150947},"306":{"tel":"951-7582","location":"서울특별시 노원구 동일로 1370 (상계동)","name":"(주)한빛종합동물병원","latitude":37.6509299,"longitude":127.0618886},"307":{"tel":"9046681","location":"경기도 고양시 일산동구 강송로 180, 백마프라자 (마두동)","name":"신일산동물병원","latitude":37.6548365,"longitude":126.7837079},"308":{"tel":"674-6551","location":"경기도 안성시 일죽면 금일로 428","name":"일죽종합동물병원","latitude":37.0899056,"longitude":127.4772869},"309":{"tel":"032-721-7582","location":"인천광역시 연수구 컨벤시아대로230번길 42, 송도아라플라자 202호 (송도동)","name":"닥터정 동물병원","latitude":37.3882114,"longitude":126.634875},"310":{"tel":"703-6535","location":"경기도 성남시 분당구 매화로 40 (야탑동, 동륜빌딩)","name":"분당고은 동물병원","latitude":37.411172,"longitude":127.1341719},"311":{"tel":"418-7582","location":"경기도 안산시 단원구 선부로 231 (와동)","name":"퍼피캣 동물병원","latitude":37.3416588,"longitude":126.8207717},"312":{"tel":"031-759-7579","location":"경기도 성남시 수정구 위례광장로 70 (창곡동, 아트리버푸르지오)","name":"스칸디동물병원","latitude":37.4704204,"longitude":127.1412807},"313":{"tel":"926-8275","location":"서울특별시 성북구 보문로 99 (보문동5가)","name":"24시 애니동물병원","latitude":37.5839514,"longitude":127.0198388},"314":{"tel":"031-643-0010","location":"경기도 이천시 장호원읍 장감로 23","name":"장호원동물병원","latitude":37.1161556,"longitude":127.6252934},"315":{"tel":"031-618-8275","location":"경기도 평택시 평택로 84-1 (평택동)","name":"김기혁 동물병원 평택동점","latitude":36.9944226,"longitude":127.0845543},"316":{"tel":"575-0059","location":"경기도 남양주시 별내중앙로 84 (별내동, 동익미라벨 3903동 14호)","name":"별내동물병원","latitude":37.6496711,"longitude":127.1219915},"317":{"tel":"031-962-8274","location":"경기도 고양시 덕양구 통일로 1128 (내유동)","name":"펫앤유 24시 동물병원","latitude":37.7150499,"longitude":126.8514416},"318":{"tel":"02-715-0075","location":"서울특별시 마포구 대흥로 24 (용강동, 서강빌딩(1~2층))","name":"닥터 호오 동물병원","latitude":37.5430394,"longitude":126.9378815},"319":{"tel":"714-8275","location":"경기도 성남시 분당구 돌마로 79, 104호 (금곡동, 썬프라자)","name":"행복이있는동물병원","latitude":37.3504148,"longitude":127.1107912},"320":{"tel":"3472-8275","location":"서울특별시 서초구 사임당로 139, 104호 (서초동)","name":"서이동물병원","latitude":37.4917723,"longitude":127.0248748},"321":{"tel":"976-7582","location":"서울특별시 노원구 동일로 1051 (공릉동, 영운빌딩 1층)","name":"스마일플러스동물병원","latitude":37.6238066,"longitude":127.0732484},"322":{"tel":"070-8691-3121","location":"서울특별시 강북구 도봉로 110-1, 4층 (미아동)","name":"모네동물피부과","latitude":37.6189145,"longitude":127.0294087},"323":{"tel":"031-733-1777","location":"경기도 성남시 중원구 희망로 350, 1층 (상대원동)","name":"상대원 동물병원","latitude":37.4369504,"longitude":127.1583452},"324":{"tel":"464-7588","location":"서울특별시 광진구 능동로 407, 2층 (중곡동)","name":"드림펫 동물병원","latitude":37.5654375,"longitude":127.0838097},"325":{"tel":"02-302-7502","location":"서울특별시 마포구 월드컵북로 224, 청화상가 104호 (성산동)","name":"행복한 동물병원","latitude":37.5698186,"longitude":126.9044549},"326":{"tel":"468-7975","location":"인천광역시 남동구 서창남로 71, 101,102호 (서창동)","name":"물빛동물병원","latitude":37.4255164,"longitude":126.7484354},"327":{"tel":"2661-7515","location":"서울특별시 강서구 마곡중앙1로 72, 1014동 103호 (마곡동, 마곡엠밸리10단지)","name":"마곡나무 동물병원","latitude":37.5595465,"longitude":126.8193654},"328":{"tel":"031-284-8875","location":"경기도 용인시 기흥구 구갈로 94 (구갈동, 주주동물병원)","name":"주주동물병원","latitude":37.2827038,"longitude":127.1115161},"329":{"tel":"3391-0075","location":"서울특별시 노원구 덕릉로 738 (상계동, 정진145빌딩)","name":"고려동물병원","latitude":37.6634294,"longitude":127.0762522},"330":{"tel":"903-5525","location":"서울특별시 강북구 삼양로 336, 예향교회 1층 (수유동)","name":"보노보노동물병원","latitude":37.6334666,"longitude":127.0177615},"331":{"tel":"02-426-7722","location":"서울특별시 강동구 아리수로 421, MIDC빌딩 101호 (강일동)","name":"아프리카동물병원","latitude":37.5646256,"longitude":127.1741056},"332":{"tel":"861-3355","location":"경기도 동두천시 중앙로 134-12 (지행동, 예일복합타워(104,105))","name":"이담동물병원","latitude":37.8931115,"longitude":127.05324},"333":{"tel":"552-0075","location":"인천광역시 계양구 장제로 923 (병방동)","name":"신영재동물병원","latitude":37.5488889,"longitude":126.741332},"334":{"tel":"793-9230","location":"서울특별시 용산구 대사관로24길 28 (한남동)","name":"한남동물병원","latitude":37.5324279,"longitude":127.0052872},"335":{"tel":"032-508-7571","location":"인천광역시 부평구 굴포로 42 (갈산동)","name":"서울종합동물병원","latitude":37.5116226,"longitude":126.7257815},"336":{"tel":"02-3152-0075","location":"서울특별시 은평구 백련산로 29 (응암동)","name":"참좋은동물병원","latitude":37.5882313,"longitude":126.9224658},"337":{"tel":"865-2137","location":"경기도 동두천시 중앙로 229 (생연동)","name":"경기동물병원","latitude":37.9021658,"longitude":127.0528722},"338":{"tel":"02-2297-7582","location":"서울특별시 성동구 행당로8길 41-2 (행당동)","name":"오렌지동물병원","latitude":37.5560681,"longitude":127.0339819},"339":{"tel":"02-333-7750","location":"서울특별시 서대문구 연희로 178, 1층 (연희동)","name":"헬로우 동물병원","latitude":37.5727933,"longitude":126.9357612},"340":{"tel":"02-2242-0175","location":"서울특별시 동대문구 한천로 164, 1층 (장안동)","name":"스마트동물병원","latitude":37.5755182,"longitude":127.0676987},"341":{"tel":"731-5511","location":"경기도 성남시 수정구 산성대로 431 (단대동)","name":"금광동물병원","latitude":37.4504927,"longitude":127.1589836},"342":{"tel":"02-2215-2022","location":"서울특별시 동대문구 장한로 139 (장안동)","name":"장평25시동물종합병원","latitude":37.5728999,"longitude":127.071418},"343":{"tel":"031-962-0926","location":"경기도 고양시 일산동구 위시티로 24, 101호 (식사동)","name":"에드워드동물병원","latitude":37.6749103,"longitude":126.8082122},"344":{"tel":"031-373-0775","location":"경기도 오산시 성호대로 26, 1층 (오산동)","name":"장수동물의료원","latitude":37.1492107,"longitude":127.064},"345":{"tel":"031-351-5738","location":"경기도 화성시 장안면 남양황라로 539-20","name":"누리팜 산업동물병원","latitude":37.0324229,"longitude":126.8530696},"346":{"tel":"758-7776","location":"경기도 성남시 수정구 시민로 159 (신흥동)","name":"초이종합동물병원","latitude":37.4423367,"longitude":127.1430549},"347":{"tel":"309-8275","location":"서울특별시 서대문구 거북골로 120 (남가좌동, DMC센트레빌아파트)","name":"프란다스동물병원","latitude":37.5759823,"longitude":126.9156631},"348":{"tel":"3665-1838","location":"서울특별시 강서구 양천로 431 (가양동, 홈플러스가양점)","name":"가양쿨펫동물병원","latitude":37.5636167,"longitude":126.8504447},"349":{"tel":"02-3664-0075","location":"서울특별시 강서구 공항대로 284, 1층 2호 (내발산동)","name":"우리아이동물메디컬센터","latitude":37.558161,"longitude":126.8391072},"350":{"tel":"286-2275","location":"경기도 용인시 기흥구 한보라2로14번길 4-14 (보라동)","name":"우리동물병원","latitude":37.2537854,"longitude":127.1102223},"351":{"tel":"02-502-7509","location":"경기도 과천시 별양상가2로 20, 124호 (별양동, 새서울쇼핑)","name":"꾸러기동물병원","latitude":37.4268373,"longitude":126.9925741},"352":{"tel":"02-949-7582","location":"서울특별시 노원구 노원로1길 9 (공릉동, 해중빌딩)","name":"키움 동물병원","latitude":37.6222024,"longitude":127.0864019},"353":{"tel":"3665-7582","location":"서울특별시 강서구 양천로 651, 1층 (염창동)","name":"염창제일동물병원","latitude":37.5530852,"longitude":126.8698172},"354":{"tel":"02-2061-5277","location":"서울특별시 양천구 신월로 320 (신정동)","name":"밀리언동물병원","latitude":37.5213172,"longitude":126.8564652},"355":{"tel":"031-916-7509","location":"경기도 고양시 일산동구 무궁화로93번길 6-10 (정발산동)","name":"김 S 동물병원","latitude":37.6667449,"longitude":126.773666},"356":{"tel":"0316555946","location":"경기도 안성시 공도읍 서동대로 4486, 1층 1호","name":"슬기로운동물병원","latitude":37.0087987,"longitude":127.2004539},"357":{"tel":"354-4110","location":"서울특별시 은평구 통일로 697 (녹번동)","name":"녹번동물병원","latitude":37.6080998,"longitude":126.9317537},"358":{"tel":"031-242-2078","location":"경기도 수원시 팔달구 정조로 751-7, 1(일부),2(일부층 (중동)","name":"청려원동물병원","latitude":37.2751216,"longitude":127.0160069},"359":{"tel":"507-7507","location":"경기도 안산시 단원구 선부광장로 71, 101호 (선부동)","name":"유동물병원","latitude":37.332898,"longitude":126.811044},"360":{"tel":"031-705-0175","location":"경기도 성남시 분당구 양현로94번길 19, 새남서울조합상가 202호 (이매동)","name":"분당우리동물의료센터","latitude":37.391196,"longitude":127.1261863},"361":{"tel":"02-993-8266","location":"서울특별시 강북구 삼양로117길 5, 1층 (수유동)","name":"초이스동물병원","latitude":37.6434083,"longitude":127.0157256},"362":{"tel":"02-420-7580","location":"서울특별시 송파구 백제고분로 115, 그린빌딩 1층 (잠실동)","name":"꿈이크는 동물병원","latitude":37.5068894,"longitude":127.0800078},"363":{"tel":"031-718-8276","location":"경기도 성남시 분당구 불곡로 4 (정자동, 리더스프라자)","name":"행복이 있는 동물병원 (정자점)","latitude":37.359419,"longitude":127.1229434},"364":{"tel":"436-7311","location":"서울특별시 중랑구 망우로 396, 신인빌딩 (망우동)","name":"세진동물병원","latitude":37.5986869,"longitude":127.0962633},"365":{"tel":"898-0330","location":"경기도 용인시 수지구 현암로125번길 6, 105호 (죽전동, 그린프라자)","name":"파우동물병원","latitude":37.3322238,"longitude":127.1235692},"366":{"tel":"02-387-7582","location":"서울특별시 은평구 은평로 93 (응암동)","name":"24시스마트동물메디컬센터","latitude":37.5997937,"longitude":126.9181328},"367":{"tel":"665-7763","location":"경기도 평택시 청북읍 율북로 13","name":"건국동물병원 (출장진료 전문)","latitude":37.0519537,"longitude":126.9823399},"368":{"tel":"3443-0275","location":"서울특별시 강남구 압구정로 108 (신사동, 덕산빌딩 203호 )","name":"압구정웰동물병원","latitude":37.5229251,"longitude":127.020598},"369":{"tel":"02-835-7975","location":"서울특별시 영등포구 도신로 225-1, 1층 (신길동, 정일빌딩)","name":"아람동물병원","latitude":37.5121587,"longitude":126.9159716},"370":{"tel":"031-851-7007","location":"경기도 의정부시 천보로 68, 201호 (민락동)","name":"의정부24시 해든동물의료센터","latitude":37.745458,"longitude":127.094152},"371":{"tel":"351-2332","location":"경기도 화성시 우정읍 3.1만세로 29","name":"청산동물병원","latitude":37.0822534,"longitude":126.8172494},"372":{"tel":"031-672-7831","location":"경기도 안성시 일죽면 서동대로 7381-8","name":"발라드동물병원 (출장전문동물병원)","latitude":37.0892278,"longitude":127.4667387},"373":{"tel":"3421-9075","location":"서울특별시 중랑구 신내로 201, 2층 (신내동, 홈플러스)","name":"도그플러스 동물병원","latitude":37.6157981,"longitude":127.093771},"374":{"tel":"031-262-8700","location":"경기도 용인시 수지구 수지로296번길 30 (풍덕천동)","name":"순수동물병원","latitude":37.3230006,"longitude":127.0923691},"375":{"tel":"031-769-5675","location":"경기도 광주시 곤지암읍 곤지암로 70-14","name":"곤지암동물병원","latitude":37.3501309,"longitude":127.3384151},"376":{"tel":"031-676-7773","location":"경기도 안성시 일죽면 송천길 75-0","name":"건국 종합 가축병원 (출장전문병원)","latitude":37.0923495,"longitude":127.4758128},"377":{"tel":"2642-9159","location":"서울특별시 양천구 등촌로 160 (목동)","name":"강현림 종합동물병원","latitude":37.5440848,"longitude":126.8624646},"378":{"tel":"494-7582,","location":"서울특별시 중랑구 망우로 247 (중화동)","name":"로얄동물메디컬센터","latitude":37.5950457,"longitude":127.0794258},"379":{"tel":"02-963-7582","location":"서울특별시 동대문구 홍릉로 48-1, 1층 (청량리동)","name":"푸른종합동물병원","latitude":37.5845839,"longitude":127.0440851},"380":{"tel":"0323280079","location":"경기도 부천시 조마루로97번길 34-9 (상동)","name":"상동물병원","latitude":37.501871,"longitude":126.7553672},"381":{"tel":"02-711-3375","location":"서울특별시 마포구 독막로 295 (염리동, 삼부골든타워106호)","name":"굿모닝 동물병원","latitude":37.5447075,"longitude":126.9460487},"382":{"tel":"422-5399","location":"인천광역시 남동구 석산로 35, 112, 113-1호 (간석동)","name":"정서동물병원","latitude":37.463791,"longitude":126.7084733},"383":{"tel":"568-7975","location":"서울특별시 강남구 역삼로 235 (역삼동)","name":"위너스 동물병원","latitude":37.4975845,"longitude":127.0421445},"384":{"tel":"02-6242-8275","location":"서울특별시 동대문구 사가정로 51 (전농동)","name":"아띠동물의료센터","latitude":37.5737571,"longitude":127.0523801},"385":{"tel":"3446-8253","location":"서울특별시 강남구 학동로6길 7 (논현동)","name":"와이즈24시 동물병원","latitude":37.5112861,"longitude":127.0238936},"386":{"tel":"431-7580","location":"인천광역시 남동구 논고개로 80, 202호 (논현동)","name":"해와달동물병원","latitude":37.3991892,"longitude":126.726558},"387":{"tel":"450-0472","location":"서울특별시 광진구 능동로 120 (화양동)","name":"건국대학교 부속 동물병원","latitude":37.5425462,"longitude":127.0737364},"388":{"tel":"2695-0072","location":"서울특별시 강서구 강서로 36 (화곡동)","name":"세인트동물병원","latitude":37.5305189,"longitude":126.8434128},"389":{"tel":"031-8055-8075","location":"경기도 화성시 동탄순환대로 253, 203호 (산척동)","name":"이로운 동물병원","latitude":37.169963,"longitude":127.1182914},"390":{"tel":"02-583-7582","location":"서울특별시 강남구 봉은사로104길 10, 3층 (삼성동, 동화빌딩)","name":"아크리스동물의료센터","latitude":37.5137395,"longitude":127.0618989},"391":{"tel":"03180033232","location":"경기도 화성시 동탄지성로 112, 1층 (반송동)","name":"S동물의료센터","latitude":37.208833,"longitude":127.0631635},"392":{"tel":"399-7599","location":"경기도 군포시 산본로343번길 23, 104호 (산본동)","name":"강남동물병원","latitude":37.3598786,"longitude":126.9303569},"393":{"tel":"02-468-7582","location":"서울특별시 성동구 뚝섬로 395 (성수동2가)","name":"제인동물병원","latitude":37.5390577,"longitude":127.054737},"394":{"tel":"406-4814","location":"서울특별시 송파구 마천로 263 (마천동)","name":"동물의왕국동물병원","latitude":37.4983578,"longitude":127.1463241},"395":{"tel":"996-0975","location":"경기도 김포시 풍무로 167, 3층 (풍무동)","name":"도그플러스","latitude":37.6099623,"longitude":126.7236686},"396":{"tel":"031-637-5248","location":"경기도 이천시 부발읍 신아로 58","name":"주식회사 선진브릿지랩","latitude":37.2582967,"longitude":127.4885026},"397":{"tel":"2632-8687","location":"서울특별시 영등포구 영중로27길 10 (영등포동7가)","name":"서울동물병원","latitude":37.5243483,"longitude":126.9042479},"398":{"tel":"637-2543","location":"경기도 이천시 중리천로 99 (창전동)","name":"하나","latitude":37.2781699,"longitude":127.4480564},"399":{"tel":"403-1604","location":"경기도 안산시 단원구 광덕1로 63, 1층 109호 (초지동, 메디프라자)","name":"한국동물병원","latitude":37.3087749,"longitude":126.8167113},"400":{"tel":"423-7588","location":"인천광역시 남동구 앵고개로 944 (논현동)","name":"코지동물의료센터","latitude":37.4024094,"longitude":126.7354629},"401":{"tel":"255-0075","location":"경기도 부천시 원미로 88-2 (원미동)","name":"바로 동물병원","latitude":37.490513,"longitude":126.7905344},"402":{"tel":"853-7582","location":"서울특별시 금천구 남부순환로 1386 (독산동)","name":"우리동물메디컬센터","latitude":37.4797401,"longitude":126.904729},"403":{"tel":"02-2690-7579","location":"서울특별시 양천구 지양로 7, 인산빌딩 1층 (신월동)","name":"해맞이 동물병원","latitude":37.5174327,"longitude":126.8377662},"404":{"tel":"031-222-7617","location":"경기도 수원시 권선구 경수대로 411 (권선동)","name":"24시꿈동물병원","latitude":37.2632543,"longitude":127.0246961},"405":{"tel":"02-790-7508","location":"서울특별시 용산구 신흥로 54, 106호 (용산동2가, 북동연립)","name":"퍼스동물병원","latitude":37.5431022,"longitude":126.9878461},"406":{"tel":"0262170202","location":"서울특별시 동대문구 전농로 57-1, 1층,2층,지하1층 동대문 루시드 동물메디컬센터 (답십리동)","name":"동대문 루시드 동물메디컬센터","latitude":37.570141,"longitude":127.0569255},"407":{"tel":"031-771-7278","location":"경기도 양평군 양서면 양수로 170, 1층","name":"개포동물병원","latitude":37.5453127,"longitude":127.3177163},"408":{"tel":"031-861-2328","location":"경기도 동두천시 중앙로217번길 8 (생연동)","name":"수제가축병원","latitude":37.9011038,"longitude":127.0522992},"409":{"tel":"02-3444-7509","location":"서울특별시 서초구 강남대로 525-3 (반포동)","name":"라파엘동물병원","latitude":37.5087841,"longitude":127.0219173},"410":{"tel":"031-522-6767","location":"경기도 남양주시 경춘로 470, 1,2층 (다산동)","name":"하랑동물의료센터","latitude":37.6096599,"longitude":127.1651929},"411":{"tel":"469-8275","location":"인천광역시 남동구 장승로 24 (만수동)","name":"해맑은동물병원","latitude":37.4456578,"longitude":126.7353694},"412":{"tel":"02-356-8353","location":"서울특별시 은평구 불광로 60, 1층 (불광동)","name":"다루동물병원","latitude":37.6123948,"longitude":126.9321148},"413":{"tel":"031-384-3920","location":"경기도 안양시 동안구 관악대로 327-1, 1층 (관양동)","name":"관양동물병원","latitude":37.403834,"longitude":126.9592004},"414":{"tel":"306-8575","location":"서울특별시 은평구 증산로 267, 103호 (증산동)","name":"한수24시동물병원","latitude":37.5818101,"longitude":126.9070526},"415":{"tel":"02-712-8875","location":"서울특별시 마포구 삼개로 28 (도화동)","name":"도화동물병원","latitude":37.5378162,"longitude":126.9472452},"416":{"tel":"031-399-8875","location":"경기도 군포시 고산로 707, 1,2층 (산본동)","name":"로아동물병원","latitude":37.3728959,"longitude":126.9362785},"417":{"tel":"02-592-8875","location":"서울특별시 동작구 사당로23나길 30 (사당동,1층)","name":"이수동물병원","latitude":37.4876903,"longitude":126.9755645},"418":{"tel":"576-7535","location":"경기도 남양주시 와부읍 덕소로 88","name":"덕소동물병원","latitude":37.5862033,"longitude":127.2120864},"419":{"tel":"537-7412","location":"서울특별시 서초구 반포대로 287, 래미안퍼스티지 중심상가 1층 143호 (반포동)","name":"신세계 동물병원","latitude":37.5043399,"longitude":127.0008685},"420":{"tel":"031-443-8875,7560","location":"경기도 안양시 만안구 안양로 150 (안양동,신강빌딩 지상1층)","name":"경기중앙동물병원","latitude":37.3878369,"longitude":126.9309},"421":{"tel":"894-3030","location":"서울특별시 금천구 독산로 58 (시흥동)","name":"제일종합동물병원","latitude":37.4525781,"longitude":126.9062372},"422":{"tel":"02-6953-7515","location":"경기도 고양시 덕양구 향기로 56, 스카이타워 1층 101호 (향동동)","name":"더바름동물병원","latitude":37.5949473,"longitude":126.8921873},"423":{"tel":"02-322-1275","location":"서울특별시 마포구 동교로 193 (동교동)","name":"워너비 동물병원","latitude":37.5577143,"longitude":126.9225114},"424":{"tel":"031-948-7579","location":"경기도 파주시 경의로 1100, 201호 (야당동, 연세프라자)","name":"야당동물병원","latitude":37.7153319,"longitude":126.7601369},"425":{"tel":"582-2412","location":"경기도 가평군 가평읍 오리나무길 27 (조은장여관)","name":"가평가축병원","latitude":37.8250258,"longitude":127.5142279},"426":{"tel":"795-2184","location":"서울특별시 용산구 대사관로 32 (한남동)","name":"펫토이동물병원","latitude":37.5335167,"longitude":127.0016999},"427":{"tel":"0312867582","location":"경기도 용인시 기흥구 용구대로2394번길 2, 2층 201,202호 (마북동)","name":"온 동물의료센터","latitude":37.2998088,"longitude":127.1076911},"428":{"tel":"439-0039","location":"인천광역시 남동구 문화로 65 (구월동)","name":"동물의왕국 동물병원","latitude":37.4449147,"longitude":126.6987413},"429":{"tel":"0505-315-1234","location":"경기도 성남시 분당구 벌말로 33, 206호 (야탑동, 일심조합상가)","name":"야탑서울동물병원","latitude":37.4110272,"longitude":127.1379046},"430":{"tel":"031-315-7582","location":"경기도 시흥시 복지로 47 (대야동)","name":"박한준종합동물병원","latitude":37.4438488,"longitude":126.789089},"431":{"tel":"02-733-6030","location":"서울특별시 종로구 자하문로 95, 신교빌딩 1층 (신교동)","name":"선동물병원","latitude":37.5844571,"longitude":126.9699956},"432":{"tel":"02-384-0075","location":"서울특별시 은평구 통일로 885 (갈현동)","name":"메디펫동물병원","latitude":37.6219963,"longitude":126.9195248},"433":{"tel":"031-944-7179","location":"경기도 파주시 경의로 1068, 101.201,202호 (야당동, 삼융프라자)","name":"운정한빛동물병원","latitude":37.7125554,"longitude":126.7596743},"434":{"tel":"02-823-7500","location":"서울특별시 동작구 상도로 262, 1층 및 2층 (상도동)","name":"우리아이동물병원","latitude":37.5038529,"longitude":126.9469129},"435":{"tel":"651-5450","location":"경기도 부천시 경인로138번길 9 (송내동)","name":"샐리동물병원","latitude":37.4837503,"longitude":126.7713587},"436":{"tel":"555-7756,","location":"인천광역시 계양구 동양로 115 (동양동)","name":"한스동물병원","latitude":37.5590702,"longitude":126.757698},"437":{"tel":"919-1175","location":"경기도 고양시 일산서구 경의로 844 (덕이동)","name":"조이동물병원","latitude":37.6928797,"longitude":126.7598383},"438":{"tel":"3662-8661","location":"서울특별시 강서구 양천로 674, 9,10호 (염창동)","name":"서서울동물병원","latitude":37.5513418,"longitude":126.8711107},"439":{"tel":"657-1062","location":"경기도 평택시 평택로 80 (평택동)","name":"맥동물병원","latitude":36.9940774,"longitude":127.0848731},"440":{"tel":"041-580-3409","location":"경기도 평택시 팽성읍 노와2길 48-16","name":"국립축산과학원 축산자원개발부 동물병원","latitude":36.9479224,"longitude":127.0963428},"441":{"tel":"711-4527","location":"서울특별시 용산구 백범로 293 (효창동)","name":"효창동물병원","latitude":37.5393175,"longitude":126.9619013},"442":{"tel":"03180304452","location":"경기도 연천군 전곡읍 양연로1113번길 179-16","name":"경기북부야생동물구조관리센터","latitude":38.0024409,"longitude":127.020061},"443":{"tel":"718-7282","location":"경기도 성남시 분당구 성남대로 30, 111호 (구미동, 동아그린프라자)","name":"현대 동물병원","latitude":37.33842,"longitude":127.1094301},"444":{"tel":"031-211-7782","location":"경기도 수원시 영통구 광교로 191, 3층 (이의동)","name":"쿨펫동물병원 광교이마트점","latitude":37.2965712,"longitude":127.0476803},"445":{"tel":"031-867-9119","location":"경기도 양주시 남면 감악산로 63-37","name":"사단법인 한국동물구조관리협회 동물병원","latitude":37.8701393,"longitude":126.9832604},"446":{"tel":"031-906-0976","location":"경기도 고양시 일산동구 강석로 156, 강촌마을7단지 (마두동)","name":"가람동물병원","latitude":37.6544669,"longitude":126.7790301},"447":{"tel":"02-484-4063","location":"서울특별시 강동구 올림픽로 566, 1층 (성내동)","name":"닥터표동물병원","latitude":37.5321033,"longitude":127.1214482},"448":{"tel":"636-7582","location":"경기도 이천시 경충대로 2486 (진리동)","name":"행복한 동물병원","latitude":37.2715789,"longitude":127.455332},"449":{"tel":"02-486-4252","location":"서울특별시 강동구 천호대로 1186, 원경빌딩 102호 (둔촌동)","name":"김태화동물병원","latitude":37.5339682,"longitude":127.1432518},"450":{"tel":"592-8275","location":"경기도 남양주시 호평로 63 (호평동)","name":"동인동물병원","latitude":37.6562558,"longitude":127.2470606},"451":{"tel":"437-8275","location":"인천광역시 남동구 논고개로 71 (논현동, 가산타워 104호)","name":"우리집동물병원","latitude":37.3980412,"longitude":126.7267978},"452":{"tel":"0234220977","location":"서울특별시 중랑구 신내로 225, 디아뜨갤러리 142호 (신내동)","name":"하니동물병원","latitude":37.61696,"longitude":127.0913012},"453":{"tel":"031-533-5065","location":"경기도 포천시 신북면 호국로 2258","name":"라임동물병원","latitude":37.948604,"longitude":127.2376761},"454":{"tel":"752-7582","location":"경기도 성남시 중원구 둔촌대로 243, 3호 (하대원동)","name":"성남동물병원","latitude":37.4287189,"longitude":127.1451071},"455":{"tel":"437-7579","location":"서울특별시 중랑구 사가정로 363 (면목동)","name":"면목동물병원","latitude":37.5812193,"longitude":127.0849188},"456":{"tel":"866-5725","location":"인천광역시 미추홀구 인주대로 168 (용현동)","name":"온누리동물병원","latitude":37.4557657,"longitude":126.655589},"457":{"tel":"031-294-0082","location":"경기도 수원시 권선구 금곡로102번길 30(금곡동)","name":"스타동물병원","latitude":37.2727972,"longitude":126.9411421},"458":{"tel":"02-3474-7582","location":"서울특별시 서초구 효령로 347, 서광빌딩 1층 (서초동)","name":"서초이음동물병원","latitude":37.4868754,"longitude":127.022012},"459":{"tel":"574-4975","location":"경기도 남양주시 순화궁로 357, 207호 (별내동)","name":"별사랑동물병원","latitude":37.6585392,"longitude":127.1247941},"460":{"tel":"02-575-7999","location":"서울특별시 강남구 선릉로 225, 도곡렉슬아파트 상가동 109호 (도곡동)","name":"고려종합동물병원","latitude":37.4953163,"longitude":127.0526809},"461":{"tel":"02-2282-7501","location":"서울특별시 성동구 매봉길 50 (옥수동, 이편한세상옥수파크힐스)","name":"스테이동물병원","latitude":37.5483424,"longitude":127.0139042},"462":{"tel":"02-588-8661","location":"서울특별시 서초구 동작대로 20, 3층 (방배동)","name":"동편동물혈액검진센터","latitude":37.4782331,"longitude":126.9820842},"463":{"tel":"031-275-6549","location":"경기도 용인시 기흥구 마북로 164, A동 1층 1,2호 (마북동, 테라스가든A빌딩)","name":"함께하는 동물병원","latitude":37.3039611,"longitude":127.1243238},"464":{"tel":"226-2465","location":"경기도 화성시 봉담읍 효행로 216","name":"성균동물병원","latitude":37.2283915,"longitude":126.970941},"465":{"tel":"031-988-8916","location":"경기도 김포시 김포한강2로 103, 528동 114호 (장기동, 우남퍼스트빌 상가동)","name":"로로 동물병원","latitude":37.637128,"longitude":126.6723752},"466":{"tel":"6650075","location":"경기도 부천시 경인로 72 (송내동)","name":"가나동물병원","latitude":37.4835268,"longitude":126.7631756},"467":{"tel":"542-1023","location":"경기도 포천시 소흘읍 솔모루로 110","name":"백두산동물병원","latitude":37.8308131,"longitude":127.1493193},"468":{"tel":"02-2677-2720","location":"서울특별시 영등포구 선유로 76, 동국메뜨리앙 206호 (문래동3가)","name":"캣앤캣 고양이 병원","latitude":37.5206588,"longitude":126.8899281},"469":{"tel":"433-7582","location":"인천광역시 남동구 남동대로 757, 2층 (구월동)","name":"웰동물메디컬센터","latitude":37.4502583,"longitude":126.7071102},"470":{"tel":"02-470-4707","location":"서울특별시 중랑구 동일로 593, 2층 (면목동)","name":"레미 동물병원","latitude":37.5833553,"longitude":127.079477},"471":{"tel":"401-0275","location":"경기도 안산시 단원구 초지2로 67, 한미타워 110호 (초지동)","name":"닥터K동물병원","latitude":37.3065558,"longitude":126.8160277},"472":{"tel":"897-7585","location":"경기도 광명시 금하로 522 (소하동)","name":"광명시티동물병원","latitude":37.4505916,"longitude":126.8901209},"473":{"tel":"031-861-7588","location":"경기도 양주시 평화로 1557 (회정동)","name":"덕계동물병원","latitude":37.8282496,"longitude":127.053096},"474":{"tel":"031-944-9075","location":"경기도 파주시 미래로 620, 112호 (와동동, 해솔프라자)","name":"운정W동물병원","latitude":37.7323949,"longitude":126.7510825},"475":{"tel":"031)536-8388","location":"경기도 포천시 군내면 호국로 1628","name":"한강동물병원","latitude":37.8983041,"longitude":127.2072546},"476":{"tel":"443-8973","location":"서울특별시 송파구 동남로 318 (오금동)","name":"김민재동물병원","latitude":37.5036919,"longitude":127.1386997},"477":{"tel":"493-7582","location":"서울특별시 중랑구 면목로 311 (면목동)","name":"성지동물병원","latitude":37.5799188,"longitude":127.0877926},"478":{"tel":"0314947975","location":"경기도 안산시 단원구 화랑로 122, 상가2동 219-222호 (원곡동)","name":"안산 반함동물의료센터","latitude":37.3252085,"longitude":126.8003624},"479":{"tel":"651-8272","location":"경기도 평택시 평남로 655 (비전동)","name":"튼튼동물병원","latitude":36.9924739,"longitude":127.1072728},"480":{"tel":"2649-0774","location":"서울특별시 양천구 등촌로 16 (목동)","name":"필동물종합병원","latitude":37.5314375,"longitude":126.8641423},"481":{"tel":"031-314-7975","location":"경기도 시흥시 비둘기공원로 21 (대야동)","name":"이지 동물병원","latitude":37.4439714,"longitude":126.7922617},"482":{"tel":"928-7582","location":"서울특별시 성북구 동소문로 74 (동소문동5가)","name":"드림동물병원","latitude":37.5918494,"longitude":127.0137124},"483":{"tel":"287-7275","location":"경기도 용인시 기흥구 마북로 141, 104호 (마북동)","name":"해피동물병원","latitude":37.3031442,"longitude":127.1221336},"484":{"tel":"031-293-0075","location":"경기도 화성시 봉담읍 동화새터길 5","name":"봉담우리애동물병원","latitude":37.2233506,"longitude":126.9528001},"485":{"tel":"553-0075","location":"경기도 남양주시 진접읍 해밀예당3로 122","name":"해밀동물병원","latitude":37.7205205,"longitude":127.1965716},"486":{"tel":"02-2244-7479","location":"서울특별시 동대문구 사가정로 221 (장안동)","name":"박철환동물병원","latitude":37.5789274,"longitude":127.0697178},"487":{"tel":"031-987-0411","location":"경기도 김포시 통진읍 김포대로 2248, 1층 101호","name":"천풍동물병원","latitude":37.6905337,"longitude":126.5966604},"488":{"tel":"528-7545","location":"경기도 남양주시 덕송2로6번길 28-11 (별내동)","name":"햇빛동물병원","latitude":37.6660512,"longitude":127.1172082},"489":{"tel":"2066-2579","location":"서울특별시 구로구 오류로 55 (오류동)","name":"캥거루 동물병원","latitude":37.4898692,"longitude":126.8397603},"490":{"tel":"02-2603-0075","location":"서울특별시 강서구 강서로 215 (화곡동, 삼광빌딩)","name":"미소동물의료센터","latitude":37.5480058,"longitude":126.8479812},"491":{"tel":"031-313-6109","location":"경기도 시흥시 수인로 3390, 지하1층 (신천동)","name":"서울동물병원","latitude":37.441782,"longitude":126.7824258},"492":{"tel":"3273-0075","location":"서울특별시 용산구 원효로 171, 신영빌딩 (원효로2가)","name":"열린동물종합병원","latitude":37.5356285,"longitude":126.9617558},"493":{"tel":"02-336-3929","location":"서울특별시 마포구 신촌로16길 34(노고산동)","name":"서진동물병원","latitude":37.5542428,"longitude":126.9342108},"494":{"tel":"0325630094","location":"인천광역시 서구 중봉대로586번길 22, 128~131호 (연희동, 청라 풍림 엑슬루타워)","name":"청라공감동물병원","latitude":37.530921,"longitude":126.6515476},"495":{"tel":"574-7580","location":"경기도 남양주시 별내5로 35, 102호 (별내동)","name":"미리내동물병원","latitude":37.6517585,"longitude":127.1157147},"496":{"tel":"2693-8883","location":"서울특별시 양천구 중앙로 295 (신월동)","name":"우신동물병원","latitude":37.5225752,"longitude":126.8514152},"497":{"tel":"409-7582","location":"경기도 안산시 상록구 본오로 133, 116호 (본오동, 우성상가)","name":"김정태동물병원","latitude":37.2977,"longitude":126.8650771},"498":{"tel":"2686-8008","location":"서울특별시 구로구 경인로 196 (오류동)","name":"금강종합동물병원","latitude":37.4953808,"longitude":126.8429361},"499":{"tel":"933-9765","location":"인천광역시 강화군 강화읍 남문로 30","name":"바울 동물병원","latitude":37.7405816,"longitude":126.4886042}}