{"0":{"tel":"031-970-9204","location":"경기도 고양시 덕양구 토당로42번길 13-15, 능곡역프라자 103호 (토당동)","name":"작은 친구 동물병원","latitude":37.6203777,"longitude":126.8211133},"1":{"tel":"2607-0022","location":"서울특별시 양천구 오목로 45 (신월동)","name":"양천종합동물병원","latitude":37.5223082,"longitude":126.8426299},"2":{"tel":"394-0816","location":"경기도 군포시 산본천로 212 (산본동)","name":"산본동물병원","latitude":37.3708891,"longitude":126.9410476},"3":{"tel":"423-7588","location":"인천광역시 남동구 앵고개로 944 (논현동)","name":"코지동물의료센터","latitude":37.4024094,"longitude":126.7354629},"4":{"tel":"02-941-5575","location":"서울특별시 성북구 길음로13길 22, 103호, 104호 (길음동, 길음7구역두산위브아파트)","name":"스마트동물병원 성북길음점","latitude":37.6097692,"longitude":127.0188371},"5":{"tel":"715-8203","location":"경기도 성남시 분당구 내정로 58, 스포라이프 스포츠센타 111호 (정자동)","name":"정자프라임동물병원","latitude":37.3654074,"longitude":127.1152008},"6":{"tel":"031-863-8370","location":"경기도 양주시 남면 감악산로244번길 33","name":"캐나다동물병원","latitude":37.8886462,"longitude":126.9789757},"7":{"tel":"469-8275","location":"인천광역시 남동구 장승로 24 (만수동)","name":"해맑은동물병원","latitude":37.4456578,"longitude":126.7353694},"8":{"tel":"02-744-9098","location":"서울특별시 종로구 지봉로 53-1 (창신동)","name":"해동물병원","latitude":37.574907,"longitude":127.0155227},"9":{"tel":"02-549-9773","location":"서울특별시 강남구 압구정로 151, 상가 1동 201호 (압구정동, 현대아파트)","name":"튼튼동물병원","latitude":37.5262292,"longitude":127.0244949},"10":{"tel":"031-425-7512","location":"경기도 안양시 동안구 동편로 6, 207호 (관양동, 스마트프라자)","name":"씨엘동물병원","latitude":37.4057443,"longitude":126.9714864},"11":{"tel":"031-388-7588","location":"경기도 안양시 동안구 관평로 314 (관양동)","name":"테라리움동물병원","latitude":37.4044579,"longitude":126.9576324},"12":{"tel":"032-710-7533","location":"인천광역시 부평구 부흥로 351, 3층 (부평동)","name":"부평24시 SKY 동물의료센터","latitude":37.4985612,"longitude":126.7312552},"13":{"tel":"2094-8344","location":"서울특별시 중랑구 중랑천로 71 (상봉동)","name":"서울우유협동조합유우진료소","latitude":37.5917353,"longitude":127.0723847},"14":{"tel":"504-7582","location":"인천광역시 부평구 부흥로 367 (부평동)","name":"쥬라기동물종합병원","latitude":37.4982188,"longitude":126.7329146},"15":{"tel":"031-831-3513","location":"경기도 화성시 동탄대로6길 15, 201~204호 (산척동)","name":"이음동물의료센터","latitude":37.1687401,"longitude":127.108429},"16":{"tel":"02-597-8985","location":"서울특별시 관악구 과천대로 909, 남현프라자 (남현동)","name":"아이러브펫동물병원","latitude":37.47149,"longitude":126.9824173},"17":{"tel":"031-374-1175","location":"경기도 오산시 대원로 37-1 (원동)","name":"원 종합동물병원","latitude":37.1465493,"longitude":127.0726318},"18":{"tel":"031-202-7512","location":"경기도 화성시 영통로 70, 대성프라자  2층 (반월동)","name":"힐링동물의료센터","latitude":37.236331,"longitude":127.061416},"19":{"tel":"413-0075","location":"서울특별시 송파구 오금로 247, 건양빌딩 (방이동)","name":"가락종합동물병원","latitude":37.5063332,"longitude":127.1210466},"20":{"tel":"0319708875","location":"경기도 고양시 덕양구 충장로 14, 글로리아프라자  2층 201호 (행신동)","name":"아이편한 동물의료센터","latitude":37.6140391,"longitude":126.8344874},"21":{"tel":"02-2651-9953","location":"서울특별시 양천구 은행정로 10 (신정동)","name":"해성동물병원","latitude":37.5206314,"longitude":126.8601386},"22":{"tel":"02-872-7582","location":"서울특별시 관악구 쑥고개로 57-1, 1층 (봉천동)","name":"비바동물병원","latitude":37.4797951,"longitude":126.942931},"23":{"tel":"031-632-8853","location":"경기도 이천시 모가면 대월로63번길 70","name":"유수의과병원","latitude":37.1715648,"longitude":127.4809885},"24":{"tel":"031-795-6060","location":"경기도 하남시 미사강변남로 45, 골든브릿지 1동 211호 (망월동)","name":"미사서울동물병원","latitude":37.5601572,"longitude":127.1865821},"25":{"tel":"032-521-6578","location":"인천광역시 부평구 경원대로 1286, 101,201호 (부평동, 부평메디아나센터)","name":"현대동물병원","latitude":37.4904337,"longitude":126.7118816},"26":{"tel":"351-3393","location":"경기도 화성시 우정읍 조암남로 22","name":"우동물병원","latitude":37.0830587,"longitude":126.8180144},"27":{"tel":"737-8375","location":"서울특별시 서대문구 통일로 392 (홍제동)","name":"한솔동물병원","latitude":37.5849182,"longitude":126.948658},"28":{"tel":"031-793-8875","location":"경기도 하남시 미사강변북로30번길 104, 1층 (망월동)","name":"미사늘봄동물병원","latitude":37.5685791,"longitude":127.1839233},"29":{"tel":"031-567-7589","location":"경기도 구리시 벌말로 104 (토평동)","name":"애니케어동물병원","latitude":37.585876,"longitude":127.147958},"30":{"tel":"031-985-7075","location":"경기도 김포시 김포한강4로 521, 한강메디플라자 201호 (구래동)","name":"김포메디엘동물병원","latitude":37.6458371,"longitude":126.6261176},"31":{"tel":"714-8275","location":"경기도 성남시 분당구 돌마로 79, 104호 (금곡동, 썬프라자)","name":"행복이있는동물병원","latitude":37.3504148,"longitude":127.1107912},"32":{"tel":"031-284-8875","location":"경기도 용인시 기흥구 구갈로 94 (구갈동, 주주동물병원)","name":"주주동물병원","latitude":37.2827038,"longitude":127.1115161},"33":{"tel":"031-317-8275","location":"경기도 시흥시 삼미시장1길 39, 1층 (신천동)","name":"숲속동물병원","latitude":37.4412548,"longitude":126.7818904},"34":{"tel":"031-864-0075","location":"경기도 동두천시 중앙로 125 (지행동, 영스포렉스 101호)","name":"윤후동물병원","latitude":37.892809,"longitude":127.051707},"35":{"tel":"054-652-5522","location":"경상북도 예천군 예천읍 맛고을길 18, 서울동물병원","name":"서울동물병원","latitude":36.6550551,"longitude":128.4507894},"36":{"tel":"02-543-4037","location":"서울특별시 강남구 도산대로50길 13, 논현빌딩 3층 (논현동)","name":"청담동물병원","latitude":37.5216059,"longitude":127.0377108},"37":{"tel":"032-817-5182","location":"인천광역시 연수구 샘말로7번길 5 (연수동)","name":"연수동물메디컬센터","latitude":37.4121102,"longitude":126.6775071},"38":{"tel":"02-373-7500","location":"서울특별시 서대문구 응암로 76, 102호 (북가좌동)","name":"위드 동물병원","latitude":37.5796441,"longitude":126.911453},"39":{"tel":"031-705-2475","location":"경기도 성남시 분당구 서현로255번길 1, 1층 (서현동)","name":"미래동물의료센터","latitude":37.3845835,"longitude":127.1296726},"40":{"tel":"951-7707","location":"서울특별시 노원구 노원로 330 (중계동)","name":"펫가든","latitude":37.646551,"longitude":127.0711156},"41":{"tel":"571-9634","location":"경기도 남양주시 진접읍 해밀예당1로 171, 108호","name":"진접동물병원","latitude":37.7198554,"longitude":127.1970995},"42":{"tel":"02-766-7577","location":"서울특별시 성북구 성북로 66, 1층 (성북동)","name":"앙리동물병원","latitude":37.5934691,"longitude":127.0017334},"43":{"tel":"02-715-0075","location":"서울특별시 마포구 대흥로 24 (용강동, 서강빌딩(1~2층))","name":"닥터 호오 동물병원","latitude":37.5430394,"longitude":126.9378815},"44":{"tel":"552-0075","location":"인천광역시 계양구 장제로 923 (병방동)","name":"신영재동물병원","latitude":37.5488889,"longitude":126.741332},"45":{"tel":"031-868-0075","location":"경기도 양주시 회천남로 76, 한덕타워 2층 01호 (옥정동)","name":"양주 온 동물병원","latitude":37.8185597,"longitude":127.09407},"46":{"tel":"2066-2579","location":"서울특별시 구로구 오류로 55 (오류동)","name":"캥거루 동물병원","latitude":37.4898692,"longitude":126.8397603},"47":{"tel":"408-5400","location":"서울특별시 송파구 중대로9길 48, MOXENHOUSE (가락동)","name":"쿨독동물병원","latitude":37.4970849,"longitude":127.1191726},"48":{"tel":"070-7720-4934","location":"경기도 고양시 덕양구 통일로 730 (관산동)","name":"통일로 동물병원","latitude":37.6878863,"longitude":126.8693593},"49":{"tel":"441-8588","location":"서울특별시 강동구 고덕로 101 (암사동)","name":"가나동물병원","latitude":37.5549209,"longitude":127.136744},"50":{"tel":"575-7513","location":"경기도 남양주시 진접읍 금강로1573번길 5","name":"장현 동물병원","latitude":37.7317879,"longitude":127.1936771},"51":{"tel":"02-583-7582","location":"서울특별시 강남구 봉은사로104길 10, 3층 (삼성동, 동화빌딩)","name":"아크리스동물의료센터","latitude":37.5137395,"longitude":127.0618989},"52":{"tel":"031-893-6119","location":"경기도 용인시 기흥구 민속촌로 8 (보라동)","name":"보라종합동물병원","latitude":37.2549883,"longitude":127.1058134},"53":{"tel":"494-7582,","location":"서울특별시 중랑구 망우로 247 (중화동)","name":"로얄동물메디컬센터","latitude":37.5950457,"longitude":127.0794258},"54":{"tel":"469-7782","location":"인천광역시 남동구 만수로 25 (만수동)","name":"좋은 친구들 동물병원","latitude":37.4592374,"longitude":126.7314084},"55":{"tel":"031-211-1313","location":"경기도 수원시 영통구 센트럴타운로 15, 142호 (이의동, 아이플렉스)","name":"온유동물병원","latitude":37.2881132,"longitude":127.057376},"56":{"tel":"024700030","location":"서울특별시 강동구 양재대로 1376 (둔촌동, 광안빌딩)","name":"Dr.주 동물병원","latitude":37.5288584,"longitude":127.1372082},"57":{"tel":"031-245-7707","location":"경기도 수원시 장안구 송정로 20, 1,2층 (정자동)","name":"레이동물병원","latitude":37.2965387,"longitude":126.9992492},"58":{"tel":"031-965-0079","location":"경기도 고양시 덕양구 혜음로 54, 1층 (고양동)","name":"고양 우리아이 동물병원","latitude":37.7054048,"longitude":126.9025308},"59":{"tel":"886-7582","location":"경기도 여주시 여흥로33번길 5 (하동)","name":"그린축산동물병원","latitude":37.2989234,"longitude":127.6280048},"60":{"tel":"474-5100","location":"서울특별시 강동구 양재대로 1385 (성내동)","name":"둔촌동물병원","latitude":37.5299158,"longitude":127.136608},"61":{"tel":"575-0059","location":"경기도 남양주시 별내중앙로 84 (별내동, 동익미라벨 3903동 14호)","name":"별내동물병원","latitude":37.6496711,"longitude":127.1219915},"62":{"tel":"031-900-8875","location":"경기도 고양시 일산동구 호수로 662, 삼성라끄빌 101호 (장항동)","name":"수 동물병원","latitude":37.6609039,"longitude":126.7657455},"63":{"tel":"031-438-7552","location":"경기도 시흥시 장곡로 23, 106호 (장곡동)","name":"장곡애니동물병원","latitude":37.37909,"longitude":126.7861683},"64":{"tel":"915-5301","location":"서울특별시 성북구 동소문로 302 (하월곡동)","name":"호담동물병원","latitude":37.6067949,"longitude":127.0285412},"65":{"tel":"357-8538","location":"서울특별시 은평구 통일로 879 (갈현동)","name":"김정복동물병원","latitude":37.6213954,"longitude":126.9195734},"66":{"tel":"031-994-7599","location":"경기도 남양주시 다산중앙로 109, 205호 (다산동)","name":"자연앤동물병원","latitude":37.6229223,"longitude":127.153452},"67":{"tel":"031-681-2406","location":"경기도 평택시 안중읍 안중로 94, 105동 (평창빌딩)","name":"정동물병원","latitude":36.9885107,"longitude":126.9270393},"68":{"tel":"652-7566,655-3691","location":"경기도 부천시 길주로 342 (중동)","name":"온유동물병원","latitude":37.5021889,"longitude":126.7805274},"69":{"tel":"031-719-9545","location":"경기도 성남시 분당구 미금로 251, 112,201,202,203호 (금곡동, 청솔마을성원아파트)","name":"동물병원루니","latitude":37.3524539,"longitude":127.1101312},"70":{"tel":"031-942-7524","location":"경기도 파주시 한울로 123 (동패동, 이마트운정점)","name":"웰니스클리닉 파주운정점","latitude":37.7103712,"longitude":126.7451139},"71":{"tel":"031-797-5528","location":"경기도 광주시 경안천로 131 (송정동)","name":"원동물병원","latitude":37.4170802,"longitude":127.2737429},"72":{"tel":"031-523-2731","location":"경기도 남양주시 순화궁로 282, 에이스하이엔드타워 112호 (별내동)","name":"팝애니랩","latitude":37.6524152,"longitude":127.1293759},"73":{"tel":"287-7275","location":"경기도 용인시 기흥구 마북로 141, 104호 (마북동)","name":"해피동물병원","latitude":37.3031442,"longitude":127.1221336},"74":{"tel":"031-334-4589","location":"경기도 용인시 처인구 중부대로 1136 (삼가동)","name":"(주)펫동물병원","latitude":37.2401247,"longitude":127.1715142},"75":{"tel":"02-2677-2720","location":"서울특별시 영등포구 선유로 76, 동국메뜨리앙 206호 (문래동3가)","name":"캣앤캣 고양이 병원","latitude":37.5206588,"longitude":126.8899281},"76":{"tel":"031-826-8875","location":"경기도 의정부시  평화로  374 (호원동)","name":"호원종합동물병원","latitude":37.7253279,"longitude":127.0485518},"77":{"tel":"031-948-7579","location":"경기도 파주시 경의로 1100, 201호 (야당동, 연세프라자)","name":"야당동물병원","latitude":37.7153319,"longitude":126.7601369},"78":{"tel":"031-958-2343","location":"경기도 파주시 적성면 어삼로 36","name":"파주연천축협동물병원","latitude":37.9951603,"longitude":126.9908032},"79":{"tel":"0316511175","location":"경기도 평택시 비전3로 27, 104, 105호 (비전동)","name":"비전동물병원","latitude":37.002686,"longitude":127.1048925},"80":{"tel":"02-2297-0075","location":"서울특별시 성동구 왕십리로 381 (하왕십리동)","name":"왕십리조은동물병원","latitude":37.5645742,"longitude":127.0278475},"81":{"tel":"731-5511","location":"경기도 성남시 수정구 산성대로 431 (단대동)","name":"금광동물병원","latitude":37.4504927,"longitude":127.1589836},"82":{"tel":"02-993-8266","location":"서울특별시 강북구 삼양로117길 5, 1층 (수유동)","name":"초이스동물병원","latitude":37.6434083,"longitude":127.0157256},"83":{"tel":"655-1101","location":"경기도 평택시 평택로 17, 1층 104호 (평택동, 롯데인벤스 스카이)","name":"이모란동물병원","latitude":36.9885983,"longitude":127.0889534},"84":{"tel":"637-7762","location":"경기도 이천시 단월로 17-13 (단월동)","name":"홍익동물병원","latitude":37.2198446,"longitude":127.4497118},"85":{"tel":"415-7585","location":"서울특별시 송파구 송파대로 388, 창영빌딩 (송파동)","name":"잠실종합동물병원","latitude":37.5023887,"longitude":127.1102415},"86":{"tel":"2632-8687","location":"서울특별시 영등포구 영중로27길 10 (영등포동7가)","name":"서울동물병원","latitude":37.5243483,"longitude":126.9042479},"87":{"tel":"031-674-4432","location":"경기도 안성시 보개면 양협길 29-67","name":"월천동물병원 (출장전문)","latitude":37.0122851,"longitude":127.3222358},"88":{"tel":"988-6543","location":"서울특별시 강북구 월계로 53 (미아동)","name":"호 동물병원","latitude":37.6119325,"longitude":127.035371},"89":{"tel":"031-278-3593","location":"경기도 수원시 권선구 호매실로104번길 90, 제이디타워1 206호 (호매실동)","name":"뷰티펫동물병원","latitude":37.2595999,"longitude":126.9627194},"90":{"tel":"031-429-7575","location":"경기도 안양시 동안구 흥안대로 113 (호계동)","name":"한빛동물병원","latitude":37.3703765,"longitude":126.9572803},"91":{"tel":"02-354-7544","location":"서울특별시 은평구 연서로 317 (불광동, 동윤빌딩)","name":"둘레길동물병원","latitude":37.6237624,"longitude":126.9277008},"92":{"tel":"031-373-2975","location":"경기도 오산시 수목원로 466, 성민리치프라자 201,202호 (금암동)","name":"위더스동물의료센터","latitude":37.1752729,"longitude":127.0500233},"93":{"tel":"706-7975","location":"서울특별시 용산구 효창원로 14 (산천동)","name":"차오름동물병원","latitude":37.534282,"longitude":126.9511288},"94":{"tel":"385-8275","location":"서울특별시 은평구 진관3로 70 (진관동, 상림마을 821동 101호)","name":"뉴타운동물병원","latitude":37.642222,"longitude":126.9226591},"95":{"tel":"031-863-2223","location":"경기도 양주시 고덕로355번길 28-37, 2층 (고읍동)","name":"양주축협동물병원","latitude":37.8057432,"longitude":127.0817072},"96":{"tel":"031-425-7588,7580","location":"경기도 안양시 동안구 흥안대로456번길 11, 102호 (평촌동,본프라자)","name":"정수동물병원","latitude":37.3948215,"longitude":126.9764874},"97":{"tel":"032-815-7582","location":"인천광역시 연수구 센트럴로 194, C동 128호 (송도동, 더샵센트럴파크2차상가)","name":"Central 동물병원","latitude":37.3945305,"longitude":126.6410311},"98":{"tel":"718-7282","location":"경기도 성남시 분당구 성남대로 30, 111호 (구미동, 동아그린프라자)","name":"현대 동물병원","latitude":37.33842,"longitude":127.1094301},"99":{"tel":"031-265-7505","location":"경기도 용인시 기흥구 죽현로 29, 102호 (보정동, 현대휴먼프라자)","name":"튼튼동물병원","latitude":37.31948,"longitude":127.1138751},"100":{"tel":"885-3347","location":"경기도 여주시 여흥로 97, 중앙동물병원 (창동)","name":"중앙동물병원","latitude":37.295813,"longitude":127.6341866},"101":{"tel":"031-498-7582","location":"경기도 시흥시 중심상가로 146, 105호 (정왕동, 한일프라자)","name":"정다운동물병원","latitude":37.3467507,"longitude":126.7319453},"102":{"tel":"02-503-7787","location":"경기도 과천시 용마로 2 (과천동)","name":"서울동물병원","latitude":37.4480401,"longitude":126.9942404},"103":{"tel":"031-278-1275","location":"경기도 화성시 봉담읍 상리2길 55, 어반센터프라자 103호","name":"라파동물병원","latitude":37.2252233,"longitude":126.9469022},"104":{"tel":"559-7581","location":"경기도 남양주시 화도읍 맷돌로91번길 4-18, 송호빌 102호","name":"대학동물병원","latitude":37.6581083,"longitude":127.3015395},"105":{"tel":"031-548-2911","location":"경기도 용인시 수지구 신봉2로 115-46, 1층 (신봉동)","name":"어울림동물병원","latitude":37.3291822,"longitude":127.069275},"106":{"tel":"765-9988","location":"인천광역시 중구 개항로 68 (경동)","name":"경동동물병원","latitude":37.4719678,"longitude":126.6299435},"107":{"tel":"02-336-3929","location":"서울특별시 마포구 신촌로16길 34(노고산동)","name":"서진동물병원","latitude":37.5542428,"longitude":126.9342108},"108":{"tel":"02-393-7577","location":"서울특별시 서대문구 신촌로 209, 1,2층 (북아현동)","name":"링크동물의료센터","latitude":37.5572088,"longitude":126.9492743},"109":{"tel":"02-2632-2307","location":"서울특별시 영등포구 국회대로54길 10, 근린생활시설 6동 2호 (영등포동7가, 아크로타워 스퀘어)","name":"영등포아크로 동물병원","latitude":37.5244035,"longitude":126.9067618},"110":{"tel":"031-535-2978","location":"경기도 포천시 중앙로 170 (신읍동)","name":"포천동물병원","latitude":37.9007143,"longitude":127.2067246},"111":{"tel":"02-3142-0008","location":"서울특별시 마포구 월드컵로 73 (망원동)","name":"동물사랑동물병원","latitude":37.5553922,"longitude":126.9103181},"112":{"tel":"712-7275","location":"경기도 성남시 분당구 정자일로 120, 119호 (정자동, 아데나루체 상가 )","name":"분당정자 동물병원","latitude":37.3608568,"longitude":127.1065583},"113":{"tel":"02-6954-7582","location":"서울특별시 광진구 뚝섬로 670 (자양동)","name":"해맑은동물병원","latitude":37.5316017,"longitude":127.0839487},"114":{"tel":"02-812-7585","location":"서울특별시 동작구 양녕로 277-1 (상도1동)","name":"품 동물의료센터","latitude":37.5043833,"longitude":126.9494109},"115":{"tel":"02-2249-7600","location":"서울특별시 동대문구 답십리로63길 1(장안동)","name":"페트로동물의료원","latitude":37.572868,"longitude":127.0677249},"116":{"tel":"02-3661-8200","location":"서울특별시 강서구 양천로57길 10-20, 102호 (가양동, 이스타빌Ⅰ)","name":"고려종합동물병원","latitude":37.5626288,"longitude":126.8530039},"117":{"tel":"355-7931","location":"서울특별시 은평구 갈현로 35 (신사동)","name":"한마음동물병원","latitude":37.6010057,"longitude":126.9101225},"118":{"tel":"2644-0069","location":"서울특별시 양천구 목동로 181 (신정동)","name":"상아동물병원","latitude":37.5246611,"longitude":126.8643771},"119":{"tel":"031-473-1275","location":"경기도 안양시 만안구 연현로 109, 2동 104호 (석수동, 석수두산위브아파트 상가동)","name":"석수동물병원","latitude":37.4326092,"longitude":126.9012667},"120":{"tel":"0325745757","location":"인천광역시 서구 여우재로 119, 202호 (가좌동, 인천가좌두산위브트레지움 2단지)","name":"토닥토닥동물병원","latitude":37.489827,"longitude":126.6859446},"121":{"tel":"758-7776","location":"경기도 성남시 수정구 시민로 159 (신흥동)","name":"초이종합동물병원","latitude":37.4423367,"longitude":127.1430549},"122":{"tel":"511-7544","location":"경기도 남양주시 화도읍 경춘로 1992 (롯데마트 내)","name":"마이펫동물병원","latitude":37.650356,"longitude":127.3094274},"123":{"tel":"566-0075","location":"인천광역시 서구 서곶로 349 (연희동)","name":"우리동물병원","latitude":37.5488933,"longitude":126.6766819},"124":{"tel":"031-315-3727","location":"경기도 시흥시 호현로22번길 27 (신천동)","name":"신천동물병원","latitude":37.4406322,"longitude":126.7870993},"125":{"tel":"02-6953-7515","location":"경기도 고양시 덕양구 향기로 56, 스카이타워 1층 101호 (향동동)","name":"더바름동물병원","latitude":37.5949473,"longitude":126.8921873},"126":{"tel":"02-338-2475","location":"서울특별시 마포구 양화로 72, 효성해링턴타워 101동 제1층 121,122호 (서교동)","name":"아이엠 동물병원","latitude":37.5508025,"longitude":126.9167218},"127":{"tel":"02-455-5975","location":"서울특별시 광진구 자양로 48, 104호 (자양동)","name":"아이본 동물병원","latitude":37.5323794,"longitude":127.0857633},"128":{"tel":"468-7975","location":"인천광역시 남동구 서창남로 71, 101,102호 (서창동)","name":"물빛동물병원","latitude":37.4255164,"longitude":126.7484354},"129":{"tel":"934-9340","location":"인천광역시 강화군 강화읍 강화대로 217","name":"베스트","latitude":37.7397512,"longitude":126.5054857},"130":{"tel":"996-1007","location":"서울특별시 강북구 삼양로 499 (수유동)","name":"애니케어 동물병원 수유점","latitude":37.6477559,"longitude":127.0142786},"131":{"tel":"02-464-7582","location":"서울특별시 광진구 능동로43길 3-5 (중곡동)","name":"스마트동물병원군자점","latitude":37.5608353,"longitude":127.0812494},"132":{"tel":"031-8042-6016","location":"경기도 시흥시 능곡번영길 22, 304,305호 (능곡동)","name":"이산동물의료센터","latitude":37.3730464,"longitude":126.8076225},"133":{"tel":"0312867582","location":"경기도 용인시 기흥구 용구대로2394번길 2, 2층 201,202호 (마북동)","name":"온 동물의료센터","latitude":37.2998088,"longitude":127.1076911},"134":{"tel":"031-536-7589","location":"경기도 포천시 중앙로 170 (신읍동)","name":"포천대신동물병원","latitude":37.9007143,"longitude":127.2067246},"135":{"tel":"255-0075","location":"경기도 부천시 원미로 88-2 (원미동)","name":"바로 동물병원","latitude":37.490513,"longitude":126.7905344},"136":{"tel":"354-0975","location":"서울특별시 은평구 연서로 137 (구산동)","name":"로얄동물병원","latitude":37.611165,"longitude":126.9168056},"137":{"tel":"467-0275","location":"인천광역시 남동구 서창남순환로 2, 2층 (서창동)","name":"보듬동물병원","latitude":37.4244168,"longitude":126.7503133},"138":{"tel":"02-572-2772","location":"서울특별시 강남구 선릉로4길 13, 2층 (개포동)","name":"디아동물병원","latitude":37.4827662,"longitude":127.0622269},"139":{"tel":"3273-0075","location":"서울특별시 용산구 원효로 171, 신영빌딩 (원효로2가)","name":"열린동물종합병원","latitude":37.5356285,"longitude":126.9617558},"140":{"tel":"676-9608","location":"경기도 안성시 죽산면 죽주로 300","name":"대한동물병원(출장전문)","latitude":37.0765212,"longitude":127.4281697},"141":{"tel":"031-8003-5999","location":"경기도 화성시 동탄공원로1길 27 (반송동)","name":"숲속동물병원","latitude":37.2033093,"longitude":127.0596783},"142":{"tel":"031-335-7582","location":"경기도 용인시 처인구 경안천로 46 (마평동)","name":"드림24 동물병원","latitude":37.2372487,"longitude":127.2106279},"143":{"tel":"031-898-1911","location":"경기도 용인시 수지구 성복2로 10, 지하1층 (성복동, 성복역롯데캐슬골드타운)","name":"웰니스 동물병원","latitude":37.3127488,"longitude":127.0833446},"144":{"tel":"031-846-9600","location":"경기도 의정부시 시민로 154 (의정부동)","name":"의정부종합동물병원","latitude":37.7372731,"longitude":127.0521405},"145":{"tel":"434-5465","location":"서울특별시 중랑구 면목로 269 (면목동)","name":"보람동물병원","latitude":37.5770334,"longitude":127.0857679},"146":{"tel":"437-0365","location":"경기도 안산시 상록구 석호로 302-1, 1층 (본오동)","name":"본오365동물병원","latitude":37.2933196,"longitude":126.8641451},"147":{"tel":"847-7335","location":"경기도 의정부시 금신로 317 (신곡동)","name":"사랑동물병원","latitude":37.7446417,"longitude":127.0625026},"148":{"tel":"2278-0075","location":"서울특별시 중구 퇴계로 254-1 (묵정동)","name":"황동물병원","latitude":37.5623722,"longitude":127.0000058},"149":{"tel":"2274-8558","location":"서울특별시 중구 퇴계로 226 (필동2가)","name":"윤신근박사동물병원","latitude":37.5616377,"longitude":126.9968583},"150":{"tel":"356-1656","location":"서울특별시 은평구 불광로 37 (불광동)","name":"불광동물병원","latitude":37.61134,"longitude":126.9297939},"151":{"tel":"02-3667-7780","location":"서울특별시 영등포구 영등포로 184, 1층 (영등포동4가)","name":"뉴욕동물병원","latitude":37.5202433,"longitude":126.901754},"152":{"tel":"0318937982","location":"경기도 용인시 수지구 광교중앙로 297, 102, 201~203호 (상현동)","name":"다올동물의료센터 광교점","latitude":37.2967116,"longitude":127.0686087},"153":{"tel":"02-834-7582","location":"서울특별시 영등포구 가마산로 324 (대림동)","name":"왈츠동물병원","latitude":37.4984431,"longitude":126.895519},"154":{"tel":"031-558-7582","location":"경기도 구리시 건원대로 41 (인창동)","name":"가람동물병원","latitude":37.6047398,"longitude":127.1397115},"155":{"tel":"861-0075","location":"서울특별시 구로구 구로동로 111-1 (구로동)","name":"푸른동물병원","latitude":37.488603,"longitude":126.8843101},"156":{"tel":"02-305-7505","location":"서울특별시 서대문구 가재울미래로 2, 204동 1층 102-2,103-1호 (남가좌동, DMC파크뷰자이)","name":"강앤정 동물병원","latitude":37.5722682,"longitude":126.9178502},"157":{"tel":"031-568-8275","location":"경기도 구리시 이문안로 138 (토평동,우신빌딩 1층)","name":"오블리 동물병원","latitude":37.590933,"longitude":127.1466662},"158":{"tel":"031-865-5700","location":"경기도 양주시 고읍남로 14, 더테라스 102호 (광사동)","name":"해맑은동물병원","latitude":37.7951833,"longitude":127.0796519},"159":{"tel":"0316570016","location":"경기도 안성시 공도읍 공도로 50","name":"바우동물병원","latitude":36.9982099,"longitude":127.1666232},"160":{"tel":"031-345-7582","location":"경기도 안양시 동안구 동편로183번길 14 (관양동)","name":"굿닥터동물병원","latitude":37.406591,"longitude":126.9703891},"161":{"tel":"031-859-0087","location":"경기도 양주시 은현면 은현로 73-8","name":"안민 동물병원","latitude":37.8754411,"longitude":127.023762},"162":{"tel":"031)395-0079","location":"경기도 군포시 고산로 686 (산본동)","name":"산본중앙동물병원","latitude":37.3709782,"longitude":126.9348166},"163":{"tel":"02-587-5618","location":"서울특별시 동작구 사당로 180 (사당동)","name":"원동물병원","latitude":37.4858912,"longitude":126.9685325},"164":{"tel":"02-2213-8875","location":"서울특별시 동대문구 답십리로 140, 세기프라자 2층 211호 (답십리동)","name":"더케이동물병원","latitude":37.5724792,"longitude":127.0556603},"165":{"tel":"031-211-7525","location":"경기도 수원시 영통구 동수원로 400-1, 1층 (매탄동)","name":"다나 동물병원","latitude":37.2647321,"longitude":127.040466},"166":{"tel":"703-7582","location":"경기도 성남시 분당구 성남대로779번길 17, 1층 (이매동, 포티스빌딩)","name":"이매 동물병원","latitude":37.3989264,"longitude":127.1264176},"167":{"tel":"031-718-8276","location":"경기도 성남시 분당구 불곡로 4 (정자동, 리더스프라자)","name":"행복이 있는 동물병원 (정자점)","latitude":37.359419,"longitude":127.1229434},"168":{"tel":"031-692-5022","location":"경기도 평택시 비전5로 20-24, 더테라스 207,208호 (비전동)","name":"24시 라움동물의료센터","latitude":36.99887,"longitude":127.1139728},"169":{"tel":"031-676-3828","location":"경기도 안성시 보개원삼로 162 (가사동)","name":"마스터동물병원 (출장전문동물병원)","latitude":37.0175513,"longitude":127.2888819},"170":{"tel":"031-642-7582~3","location":"경기도 이천시 설성면 설가로 4","name":"명성동물병원","latitude":37.1377398,"longitude":127.5107237},"171":{"tel":"238-7979","location":"경기도 화성시 병점2로 9 (병점동)","name":"서울대동물종합병원","latitude":37.2054658,"longitude":127.0379225},"172":{"tel":"02)478-2208","location":"서울특별시 강동구 천호대로191길 6(길동)","name":"양지가축동물병원","latitude":37.5354137,"longitude":127.1445004},"173":{"tel":"031-212-1999","location":"경기도 수원시 영통구 인계로220번길 20 (매탄동)","name":"방실웃는 동물병원","latitude":37.2641993,"longitude":127.0410569},"174":{"tel":"031-293-0285","location":"경기도 수원시 권선구 매송고색로 661-1 (고색동)","name":"현대동물병원","latitude":37.2499733,"longitude":126.9769138},"175":{"tel":"2633-9991","location":"서울특별시 영등포구 영등포로 131-2 (당산동1가)","name":"영등포동물병원","latitude":37.521548,"longitude":126.8962885},"176":{"tel":"032-889-7582","location":"인천광역시 미추홀구 독배로432번길 3, 1층 (숭의동)","name":"브라운동물병원","latitude":37.4582462,"longitude":126.6494063},"177":{"tel":"031-262-8700","location":"경기도 용인시 수지구 수지로296번길 30 (풍덕천동)","name":"순수동물병원","latitude":37.3230006,"longitude":127.0923691},"178":{"tel":"031-292-7504","location":"경기도 수원시 권선구 서수원로523번길 30-23, 1층 (금곡동)","name":"티움동물병원","latitude":37.2713699,"longitude":126.9571522},"179":{"tel":"031-275-7579","location":"경기도 용인시 기흥구 연원로 1, 101호 (마북동, 연원마을LG아파트상가)","name":"구성동물병원","latitude":37.3015935,"longitude":127.107839},"180":{"tel":"031-948-6669","location":"경기도 파주시 심학산로423번길 7-33, 준프라자 2층 201호 (목동동)","name":"산내동물병원","latitude":37.7194438,"longitude":126.7372524},"181":{"tel":"2686-8008","location":"서울특별시 구로구 경인로 196 (오류동)","name":"금강종합동물병원","latitude":37.4953808,"longitude":126.8429361},"182":{"tel":"357-3924","location":"경기도 화성시 남양읍 남양시장로 54","name":"우리동물병원","latitude":37.2087793,"longitude":126.8154286},"183":{"tel":"031-535-8037","location":"경기도 포천시 신북면 호국로 2013","name":"누리팜동물병원","latitude":37.9300441,"longitude":127.2237285},"184":{"tel":"976-7585","location":"경기도 고양시 일산동구 고봉로 250 (중산동)","name":"산들동물병원","latitude":37.6818546,"longitude":126.7785042},"185":{"tel":"02-6953-8275","location":"서울특별시 은평구 진관2로 77, 205동 지하1층 B104호 (진관동, 은평뉴타운우물골)","name":"우리덕구동물병원","latitude":37.6345692,"longitude":126.9275929},"186":{"tel":"031-964-7599","location":"경기도 고양시 덕양구 혜음로 8 (고양동)","name":"고양동물병원","latitude":37.7011144,"longitude":126.9018522},"187":{"tel":"404-6123","location":"서울특별시 송파구 오금로35길 44 (오금동)","name":"이재풍동물병원","latitude":37.5064778,"longitude":127.1292848},"188":{"tel":"02-588-8661","location":"서울특별시 서초구 동작대로 20, 3층 (방배동)","name":"동편동물혈액검진센터","latitude":37.4782331,"longitude":126.9820842},"189":{"tel":"682-1279","location":"경기도 부천시 소사로 706 (원종동)","name":"정종합동물병원","latitude":37.5188544,"longitude":126.8051731},"190":{"tel":"032-203-8984","location":"인천광역시 부평구 동수천로 124, 103~104호 (부개동)","name":"사랑동물병원","latitude":37.4965868,"longitude":126.7371078},"191":{"tel":"032-578-5119","location":"인천광역시 서구 가정로 375, 2층 201호 (신현동, 금강아미움)","name":"길동물병원","latitude":37.5184973,"longitude":126.6726068},"192":{"tel":"996-8275","location":"서울특별시 도봉구 도봉로 618, 108호 (창동)","name":"행복한동물병원","latitude":37.6594418,"longitude":127.0417992},"193":{"tel":"263-3575","location":"경기도 용인시 수지구 성복2로76번길 26-3, B101호 (성복동, 드림타워)","name":"성복동물병원","latitude":37.3152536,"longitude":127.0809334},"194":{"tel":"643-7582","location":"경기도 이천시 장호원읍 서동대로8809번길 22-5","name":"다산동물병원 「산업동물에 대한 출장진료를 전문으로 함」","latitude":37.1161435,"longitude":127.6143925},"195":{"tel":"031-713-5004","location":"경기도 성남시 분당구 성남대로171번길 17, 씨티밸리 101호 (금곡동)","name":"엔젤동물병원","latitude":37.3511517,"longitude":127.1068142},"196":{"tel":"467-8575","location":"인천광역시 남동구 구월로 65 (간석동, 현대홈타운 102동 상가104호)","name":"덕수동물병원","latitude":37.4581223,"longitude":126.6979089},"197":{"tel":"02-484-4063","location":"서울특별시 강동구 올림픽로 566, 1층 (성내동)","name":"닥터표동물병원","latitude":37.5321033,"longitude":127.1214482},"198":{"tel":"981-1516","location":"경기도 김포시 양촌읍 양곡1로 13","name":"제일종합동물병원","latitude":37.6519415,"longitude":126.623839},"199":{"tel":"031-315-7582","location":"경기도 시흥시 복지로 47 (대야동)","name":"박한준종합동물병원","latitude":37.4438488,"longitude":126.789089},"200":{"tel":"02-877-5599","location":"서울특별시 관악구 신림로 157-1 (신림동)","name":"신림종합동물병원","latitude":37.4730904,"longitude":126.9329041},"201":{"tel":"032)439-8822","location":"인천광역시 남동구 논현남로 19, 101,102호 (논현동)","name":"해피동물병원","latitude":37.4033047,"longitude":126.7225184},"202":{"tel":"883-6615","location":"경기도 여주시 청심로 121-7, 태성진동물병원 (하동)","name":"태성진동물병원","latitude":37.2990002,"longitude":127.6337717},"203":{"tel":"450-9306","location":"서울특별시 광진구 능동로 216 (능동)","name":"서울어린이대공원동물병원","latitude":37.5495943,"longitude":127.0815904},"204":{"tel":"031-897-7577","location":"경기도 용인시 수지구 현암로 135, 베스트프라자 2층 (죽전동)","name":"서울앤탑 동물병원","latitude":37.3319561,"longitude":127.1244454},"205":{"tel":"02-393-7588","location":"서울특별시 중구 만리재로 177, 105호 (만리동2가, 서울역한라비발디센트럴)","name":"백슬동물병원","latitude":37.5551195,"longitude":126.9657997},"206":{"tel":"797-4755","location":"경기도 광주시 곤지암읍 대석동길 73","name":"우정동물병원","latitude":37.3529455,"longitude":127.3445326},"207":{"tel":"02-2282-7503","location":"서울특별시 성동구 행당로 76, 한진노변상가 1,2층 108호109호203호 (행당동)","name":"이윤세동물병원","latitude":37.5558957,"longitude":127.0292059},"208":{"tel":"02-925-3686","location":"서울특별시 동대문구 안암로 40, 1층 (용두동)","name":"안암동물병원","latitude":37.5805645,"longitude":127.0268162},"209":{"tel":"02-733-5060","location":"서울특별시 서대문구 통일로 171-1 (냉천동)","name":"독립문동물병원","latitude":37.5690936,"longitude":126.9631973},"210":{"tel":"02-832-0081","location":"서울특별시 관악구 봉천로 232 (신림동)","name":"예일동물병원","latitude":37.4892557,"longitude":126.9272258},"211":{"tel":"02-419-7571","location":"서울특별시 송파구 백제고분로 432, 2층 (송파동)","name":"송파원동물병원","latitude":37.5092645,"longitude":127.1118798},"212":{"tel":"02-6052-8275","location":"서울특별시 서초구 서래로 38 (반포동)","name":"서래동물병원","latitude":37.4983609,"longitude":126.9985361},"213":{"tel":"5614667","location":"인천광역시 서구 탁옥로74번길 16, 113호 (심곡동)","name":"연희동물병원","latitude":37.5423948,"longitude":126.6774457},"214":{"tel":"393-6675","location":"서울특별시 서대문구 통일로 197 (영천동)","name":"우리동물병원","latitude":37.5709274,"longitude":126.9612943},"215":{"tel":"673-5858","location":"경기도 안성시 중앙로 431-1 (봉남동)","name":"이성준동물병원","latitude":37.0066493,"longitude":127.2748047},"216":{"tel":"02-927-7517","location":"서울특별시 성북구 아리랑로 18, 1층 101호 (동선동5가)","name":"성신동물병원","latitude":37.5945299,"longitude":127.0163402},"217":{"tel":"721-7582","location":"경기도 성남시 수정구 수정로 160 (신흥동, 신흥상가)","name":"가나동물병원","latitude":37.4424857,"longitude":127.137834},"218":{"tel":"767-0079","location":"경기도 광주시 태봉로 26, 101호 (태전동, 대한상가)","name":"견우동물병원","latitude":37.3910266,"longitude":127.2301204},"219":{"tel":"818-6543","location":"경기도 고양시 덕양구 호국로 821, 101호 (주교동)","name":"해오름 동물병원","latitude":37.6589386,"longitude":126.8385472},"220":{"tel":"429-8822","location":"서울특별시 강동구 상일로 13, 1,2층 (상일동)","name":"GD동물병원","latitude":37.5482548,"longitude":127.1731335},"221":{"tel":"02-967-0877","location":"서울특별시 동대문구 이문로 80 (이문동)","name":"애니케어동물병원","latitude":37.5940568,"longitude":127.0588764},"222":{"tel":"2202-0075","location":"서울특별시 송파구 백제고분로 161, 성선빌딩 (잠실동)","name":"위드펫종합동물병원","latitude":37.5055017,"longitude":127.0848618},"223":{"tel":"656-0524","location":"경기도 평택시 중앙로 141 (비전동)","name":"코리아동물병원","latitude":36.9927665,"longitude":127.0987239},"224":{"tel":"031-876-7511","location":"경기도 의정부시 회룡로 178 (장암동)","name":"나은동물병원","latitude":37.7263802,"longitude":127.053473},"225":{"tel":"02-470-4707","location":"서울특별시 중랑구 동일로 593, 2층 (면목동)","name":"레미 동물병원","latitude":37.5833553,"longitude":127.079477},"226":{"tel":"031-319-7583","location":"경기도 시흥시 배곧4로 95, 지음프라자 101호 (정왕동)","name":"만세동물병원","latitude":37.3742462,"longitude":126.7339767},"227":{"tel":"457-7582","location":"서울특별시 광진구 아차산로 537-17 (광장동)","name":"나루동물병원","latitude":37.5431841,"longitude":127.0995743},"228":{"tel":"0325647600","location":"인천광역시 서구 청라에메랄드로102번길 10, 청라리치아노 1층 103~105호 (청라동)","name":"아이케어 동물병원","latitude":37.5339183,"longitude":126.6574702},"229":{"tel":"02-797-4408","location":"서울특별시 강남구 테헤란로8길 46, 2층 (역삼동)","name":"동물치과병원메이","latitude":37.4958607,"longitude":127.0322512},"230":{"tel":"031-713-8391","location":"경기도 성남시 분당구 정자일로 197, 101호 (정자동, 푸르지오씨티 2차)","name":"세인트존스동물병원","latitude":37.3680412,"longitude":127.1055755},"231":{"tel":"031-637-5248","location":"경기도 이천시 부발읍 신아로 58","name":"주식회사 선진브릿지랩","latitude":37.2582967,"longitude":127.4885026},"232":{"tel":"031-334-6125","location":"경기도 용인시 처인구 중부대로 1307 (역북동)","name":"이리온 동물메디컬센터","latitude":37.2362116,"longitude":127.1901499},"233":{"tel":"02-2242-7510","location":"서울특별시 동대문구 전농로 15-3 (답십리동)","name":"하이유 동물병원","latitude":37.5666143,"longitude":127.0559499},"234":{"tel":"02-2234-1379","location":"서울특별시 동대문구 청계천로 417, 108호 (신설동, 청계천 대성 스카이렉스1)","name":"맑은 동물병원","latitude":37.5720094,"longitude":127.0239389},"235":{"tel":"032-863-7582","location":"인천광역시 미추홀구 미추홀대로 533 (주안동)","name":"닥터파파동물병원","latitude":37.4450257,"longitude":126.6785519},"236":{"tel":"031-266-2993","location":"경기도 용인시 기흥구 죽전로 49, 101호 (보정동)","name":"죽전동물병원","latitude":37.3207373,"longitude":127.1142649},"237":{"tel":"031-633-9883","location":"경기도 이천시 영창로 181 (창전동)","name":"제일","latitude":37.2816779,"longitude":127.4427384},"238":{"tel":"865-2137","location":"경기도 동두천시 중앙로 229 (생연동)","name":"경기동물병원","latitude":37.9021658,"longitude":127.0528722},"239":{"tel":"031-719-5725","location":"경기도 성남시 분당구 백현로156번길 17-2 (정자동)","name":"우리동물병원","latitude":37.3713198,"longitude":127.1139728},"240":{"tel":"031-885-7475","location":"경기도 여주시 청심로 17-7 (하동)","name":"나무동물병원","latitude":37.3011548,"longitude":127.6223161},"241":{"tel":"031-575-7598","location":"경기도 남양주시 오남읍 진건오남로 865","name":"오남동물병원","latitude":37.7024434,"longitude":127.1980965},"242":{"tel":"439-3578","location":"인천광역시 남동구 은봉로312번길 29-14, 101호 (논현동)","name":"강아지와고양이나라 동물병원","latitude":37.4045165,"longitude":126.7257098},"243":{"tel":"032-566-7588","location":"인천광역시 서구 원당대로 852, 창신프라자 204호 (당하동)","name":"원당동물병원","latitude":37.59336,"longitude":126.6960135},"244":{"tel":"070-4337-5967","location":"경기도 고양시 일산동구 고양대로 885 (풍동)","name":"펫스티벌 동물병원","latitude":37.6791001,"longitude":126.793718},"245":{"tel":"02-336-0073","location":"서울특별시 마포구 월드컵로 147, 1층 (망원동, 한익빌딩)","name":"이황 동물병원","latitude":37.5607821,"longitude":126.9054514},"246":{"tel":"2661-7515","location":"서울특별시 강서구 마곡중앙1로 72, 1014동 103호 (마곡동, 마곡엠밸리10단지)","name":"마곡나무 동물병원","latitude":37.5595465,"longitude":126.8193654},"247":{"tel":"935-7588","location":"서울특별시 노원구 노원로34길 76 (상계동)","name":"한강동물병원","latitude":37.6624741,"longitude":127.0660875},"248":{"tel":"356-4311","location":"경기도 화성시 남양읍 남양시장로 101","name":"한빛동물병원","latitude":37.2109001,"longitude":126.8199668},"249":{"tel":"437-7582","location":"인천광역시 남동구 예술로 198, CGV 홈플러스 1층 (구월동)","name":"백슬동물병원","latitude":37.4519427,"longitude":126.7018707},"250":{"tel":"031-241-2668","location":"경기도 수원시 장안구 팔달로 298 (영화동)","name":"광교산동물병원","latitude":37.2907568,"longitude":127.0169144},"251":{"tel":"835-0815","location":"경기도 연천군 전곡읍 전곡역로 47","name":"성심동물병원","latitude":38.023612,"longitude":127.0682087},"252":{"tel":"02-887-1575","location":"서울특별시 관악구 남부순환로 1678, 1, 2층 (신림동)","name":"이로동물의료센터","latitude":37.4842283,"longitude":126.9368236},"253":{"tel":"031-396-8275","location":"경기도 안양시 동안구 시민대로 370 (관양동)","name":"안양본동물의료센터","latitude":37.3956643,"longitude":126.971592},"254":{"tel":"031-772-0075","location":"경기도 양평군 양평읍 시민로 90","name":"참 좋은 동물병원","latitude":37.4904961,"longitude":127.5013895},"255":{"tel":"2690-5673","location":"서울특별시 양천구 월정로 46 (신월동)","name":"햇살동물병원","latitude":37.5238261,"longitude":126.8423384},"256":{"tel":"2666-0370","location":"서울특별시 강서구 방화대로47가길 7 (방화동, 방화샤르망1오피스텔)","name":"와우동물병원","latitude":37.5677805,"longitude":126.8096346},"257":{"tel":"02-541-7515","location":"서울특별시 강남구 삼성로 614 (삼성동)","name":"24시 청담우리 동물병원","latitude":37.5144968,"longitude":127.0528822},"258":{"tel":"0313357578","location":"경기도 용인시 처인구 명지로 185 (남동)","name":"닥터페티앙동물병원","latitude":37.2265544,"longitude":127.1958726},"259":{"tel":"031-594-7562","location":"경기도 남양주시 화도읍 먹갓로 3, 2층 201호","name":"화도동물병원","latitude":37.6544691,"longitude":127.2748135},"260":{"tel":"031-895-5775","location":"경기도 수원시 팔달구 인계로 91, 2,3층 (인계동)","name":"수원 스카이 동물메디컬센터","latitude":37.2685694,"longitude":127.0277713},"261":{"tel":"031-992-8275","location":"경기도 김포시 고촌읍 수기로 109, 캐슬힐 115호, 208호","name":"24시쎈텀동물병원","latitude":37.593789,"longitude":126.7639423},"262":{"tel":"031-944-7179","location":"경기도 파주시 경의로 1068, 101.201,202호 (야당동, 삼융프라자)","name":"운정한빛동물병원","latitude":37.7125554,"longitude":126.7596743},"263":{"tel":"02-3394-7075","location":"서울특별시 동대문구 답십리로 224-1 (답십리동)","name":"땅콩동물병원","latitude":37.5725971,"longitude":127.065298},"264":{"tel":"413-7514","location":"서울특별시 송파구 오금로 126, 105호 (송파동, 레이크 해모로)","name":"호수동물병원","latitude":37.5113678,"longitude":127.1088127},"265":{"tel":"02-965-0075","location":"서울특별시 동대문구 이문로 136, 2층 208호 (이문동, 이문동 웰츠타워)","name":"바론동물병원","latitude":37.5985079,"longitude":127.0619038},"266":{"tel":"955-8400","location":"서울특별시 도봉구 도봉로 875 (도봉동)","name":"도담동물병원","latitude":37.6826806,"longitude":127.0455548},"267":{"tel":"031-705-0175","location":"경기도 성남시 분당구 양현로94번길 19, 새남서울조합상가 202호 (이매동)","name":"분당우리동물의료센터","latitude":37.391196,"longitude":127.1261863},"268":{"tel":"031-557-9009","location":"경기도 구리시 검배로 36, 현주Ifriend빌딩 101호 (수택동)","name":"구리동물병원","latitude":37.5979618,"longitude":127.143102},"269":{"tel":"031-822-6619","location":"경기도 의정부시 오목로 215, 1층 104호 (민락동, 송림프라자)","name":"나라동물병원","latitude":37.7455138,"longitude":127.0990623},"270":{"tel":"032-328-0119","location":"경기도 부천시 부흥로315번길 69, 2층 (중동)","name":"정다운동물병원","latitude":37.4975432,"longitude":126.7766796},"271":{"tel":"031-434-0863","location":"경기도 시흥시 함송로 15, 화신프라자 104,105호 (정왕동)","name":"배곧코코동물병원","latitude":37.3640503,"longitude":126.7302704},"272":{"tel":"980-2340","location":"서울특별시 강북구 삼양로19길 25, 110동 지층 1-2,1-3호 (미아동, 삼성래미안트리베라1차아파트)","name":"삼성동물병원","latitude":37.6139434,"longitude":127.0207341},"273":{"tel":"275-7575","location":"인천광역시 계양구 장제로 708 (작전동, 한샘프라자)","name":"계양 24시 SKY 동물병원","latitude":37.531035,"longitude":126.7342418},"274":{"tel":"848-8575","location":"경기도 남양주시 별내면 청학로68번길 13 (삼화빌딩)","name":"사랑동물병원","latitude":37.7085815,"longitude":127.1193493},"275":{"tel":"883-6363","location":"경기도 여주시 세종로 27-1, 푸른동물병원 (홍문동)","name":"푸른동물병원","latitude":37.2953413,"longitude":127.6368689},"276":{"tel":"792-4904","location":"경기도 하남시 대청로 50-1, 상가동 1층 101호 (신장동, 백송한신아파트)","name":"누리동물병원","latitude":37.5395115,"longitude":127.2177712},"277":{"tel":"031-217-7119","location":"경기도 용인시 기흥구 흥덕중앙로 59 (영덕동, 용인흥덕노블레스흥덕노블레스)","name":"흥덕종합동물병원","latitude":37.2764992,"longitude":127.0737223},"278":{"tel":"499-7582","location":"서울특별시 광진구 면목로 142 (중곡동)","name":"다온동물병원","latitude":37.5659576,"longitude":127.0814927},"279":{"tel":"584-3063","location":"경기도 가평군 설악면 신천중앙로 117","name":"설악동물병원","latitude":37.6778649,"longitude":127.4904553},"280":{"tel":"462-0070","location":"인천광역시 남동구 만수서로 60 (만수동)","name":"메이동물병원","latitude":37.4614379,"longitude":126.7327179},"281":{"tel":"031-339-5575","location":"경기도 용인시 처인구 경안천로 2 (마평동)","name":"굿모닝동물병원","latitude":37.2335502,"longitude":127.2112594},"282":{"tel":"466-8670","location":"인천광역시 남동구 만수로 10 (만수동)","name":"하태흥반려동물의료센터","latitude":37.4581332,"longitude":126.7305507},"283":{"tel":"031-374-4644","location":"경기도 오산시 성호대로 36 (오산동)","name":"진선동물병원","latitude":37.1490863,"longitude":127.0651829},"284":{"tel":"752-7582","location":"경기도 성남시 중원구 둔촌대로 243, 3호 (하대원동)","name":"성남동물병원","latitude":37.4287189,"longitude":127.1451071},"285":{"tel":"02-459-5955","location":"서울특별시 강남구 광평로 196, 1층 109호 (수서동, 제이스프라자)","name":"수서동물병원","latitude":37.484087,"longitude":127.0939285},"286":{"tel":"02-2676-7582","location":"서울특별시 영등포구 영등포로 85-1, 1, 2, 지층 (양평동1가)","name":"24시 수 동물메디컬센터","latitude":37.5223493,"longitude":126.8911809},"287":{"tel":"0325630094","location":"인천광역시 서구 중봉대로586번길 22, 128~131호 (연희동, 청라 풍림 엑슬루타워)","name":"청라공감동물병원","latitude":37.530921,"longitude":126.6515476},"288":{"tel":"507-1110","location":"인천광역시 부평구 부평북로 446, 101호 (삼산동, 우리빌딩)","name":"리치동물병원","latitude":37.5216907,"longitude":126.74302},"289":{"tel":"032-876-7585","location":"인천광역시 미추홀구 경인로354번길 6 (주안동)","name":"아나파동물병원","latitude":37.4582128,"longitude":126.6791776},"290":{"tel":"031-711-6775","location":"경기도 성남시 분당구 정자일로 100, 116호 (정자동, 미켈란쉐르빌)","name":"분당다원동물병원","latitude":37.3590967,"longitude":127.1070087},"291":{"tel":"0319768939","location":"경기도 고양시 일산서구 고봉로 299, 1,2층 (일산동)","name":"중산동물메디컬센터","latitude":37.6858929,"longitude":126.7772812},"292":{"tel":"031-314-0706","location":"경기도 시흥시 수인로 3376-1, 1층 (신천동)","name":"펫츠나라 동물병원","latitude":37.4412845,"longitude":126.783885},"293":{"tel":"735-1942","location":"경기도 성남시 수정구 시민로 146 (신흥동)","name":"고려애견종합병원","latitude":37.4412352,"longitude":127.1440312},"294":{"tel":"862-0975","location":"인천광역시 남동구 경원대로 971, 2층 (간석동, 홈플러스)","name":"도그플러스동물병원","latitude":37.4695758,"longitude":126.689013},"295":{"tel":"900-9929","location":"서울특별시 도봉구 도봉로 469 (쌍문동)","name":"퓨리나동물병원","latitude":37.6490105,"longitude":127.0255339},"296":{"tel":"551-8275","location":"인천광역시 계양구 안남로 499 (효성동)","name":"계양동물병원","latitude":37.5276511,"longitude":126.7107641},"297":{"tel":"02-905-9119","location":"서울특별시 도봉구 도봉로 603, 1층, 지층 (쌍문동)","name":"별난동물병원","latitude":37.6586044,"longitude":127.0403238},"298":{"tel":"512-0075","location":"서울특별시 강남구 논현로67길 56 (역삼동)","name":"츄츄 동물병원","latitude":37.4931686,"longitude":127.0354405},"299":{"tel":"409-7582","location":"경기도 안산시 상록구 본오로 133, 116호 (본오동, 우성상가)","name":"김정태동물병원","latitude":37.2977,"longitude":126.8650771},"300":{"tel":"031-716-9001","location":"경기도 성남시 분당구 미금로 43, 정운빌딩 1층 (구미동)","name":"한국동물선진의료연구소(KASMINE) 동물심혈관신장센터","latitude":37.3371237,"longitude":127.1159767},"301":{"tel":"2651-1855","location":"서울특별시 양천구 목동중앙본로 100, 101호 (목동)","name":"대현동물병원","latitude":37.5444822,"longitude":126.8708992},"302":{"tel":"571-4465","location":"경기도 남양주시 퇴계원읍 경춘북로 516","name":"한강동물병원","latitude":37.6468982,"longitude":127.1411167},"303":{"tel":"031-798-7581","location":"경기도 광주시 초월읍 현산로385번길 74-12","name":"광주TNR동물병원(초월)","latitude":37.4159066,"longitude":127.2762346},"304":{"tel":"032-270-2727","location":"인천광역시 부평구 마장로 489, 2층 2113~2114호 (청천동, 아이즈빌아울렛)","name":"튼튼동물병원","latitude":37.5218638,"longitude":126.7034829},"305":{"tel":"9046681","location":"경기도 고양시 일산동구 강송로 180, 백마프라자 (마두동)","name":"신일산동물병원","latitude":37.6548365,"longitude":126.7837079},"306":{"tel":"031-264-1997","location":"경기도 용인시 수지구 성복2로 114, 111호 (성복동, 플러스클리닉수지센터)","name":"꿈에동물병원","latitude":37.3160376,"longitude":127.0734924},"307":{"tel":"338-7975","location":"경기도 용인시 처인구 포곡읍 포곡로 90","name":"나라동물병원","latitude":37.2674533,"longitude":127.2158686},"308":{"tel":"707-2235","location":"서울특별시 용산구 원효로 51, 119호 (산천동, 삼성테마트)","name":"민트동물병원","latitude":37.5340274,"longitude":126.9504158},"309":{"tel":"611-1766","location":"경기도 평택시 지산로 34 (지산동)","name":"필립동물병원","latitude":37.0789676,"longitude":127.0586883},"310":{"tel":"031-338-6771","location":"경기도 용인시 처인구 금령로55번길 6, 1층 (김량장동)","name":"용인축협동물병원(산업동물출장진료전문)","latitude":37.2355438,"longitude":127.2025206},"311":{"tel":"031-214-5527","location":"경기도 수원시 영통구 중부대로 263, 2층 (원천동)","name":"수원종합동물병원","latitude":37.2747512,"longitude":127.0447905},"312":{"tel":"547-4788,","location":"인천광역시 계양구 경명대로 1095, 3동 (계산동)","name":"AVC 동물메디컬센터","latitude":37.5437694,"longitude":126.7290038},"313":{"tel":"457-0292","location":"서울특별시 광진구 아차산로 451 (구의동)","name":"프라임동물병원","latitude":37.5393088,"longitude":127.0920025},"314":{"tel":"436-7311","location":"서울특별시 중랑구 망우로 396, 신인빌딩 (망우동)","name":"세진동물병원","latitude":37.5986869,"longitude":127.0962633},"315":{"tel":"02-816-7582","location":"서울특별시 동작구 장승배기로27길 18 (노량진동)","name":"디아크동물종합병원","latitude":37.5117082,"longitude":126.9390509},"316":{"tel":"031-255-3735","location":"경기도 수원시 팔달구 팔달로 163-1 (화서동)","name":"중앙동물병원","latitude":37.2829129,"longitude":127.0061314},"317":{"tel":"3917502","location":"서울특별시 종로구 자하문로 305 (홍지동)","name":"올리브동물병원","latitude":37.599291,"longitude":126.958987},"318":{"tel":"02-932-7582","location":"서울특별시 노원구 덕릉로 810-1 (상계동)","name":"당고개동물병원","latitude":37.6704538,"longitude":127.0842358},"319":{"tel":"0327527515","location":"인천광역시 중구 자연대로 47, 스타타워2 101호 (중산동)","name":"영종H동물의료센터","latitude":37.4887005,"longitude":126.5589348},"320":{"tel":"031-352-0002","location":"경기도 화성시 향남읍 상신하길로298번길 7-21, 1동 211호","name":"루아동물병원","latitude":37.1152036,"longitude":126.9123695},"321":{"tel":"02-883-0007","location":"서울특별시 관악구 은천로 85 (봉천동)","name":"더블유동물병원","latitude":37.4870789,"longitude":126.94473},"322":{"tel":"032-933-9509","location":"인천광역시 강화군 강화읍 강화대로 376-1","name":"인천강화옹진축협 동물병원","latitude":37.7445787,"longitude":126.4891105},"323":{"tel":"032-323-7579","location":"경기도 부천시 길주로 234, 힐스테이트 중동 203동 2001, 2007호 (중동)","name":"부천24시SKY동물메디컬센터","latitude":37.5032173,"longitude":126.7681115},"324":{"tel":"2060-8673","location":"서울특별시 구로구 개봉로 121 (개봉동)","name":"굿모닝 동물병원","latitude":37.4966781,"longitude":126.8561456},"325":{"tel":"031-372-8333","location":"경기도 오산시 궐리사로 69, 구마빌딩 101호 (궐동)","name":"튼튼동물병원","latitude":37.1589423,"longitude":127.0601533},"326":{"tel":"02-577-3690","location":"서울특별시 서초구 동산로 66 (양재동)","name":"한 동물병원","latitude":37.4718796,"longitude":127.0459859},"327":{"tel":"031-867-9119","location":"경기도 양주시 남면 감악산로 63-37","name":"사단법인 한국동물구조관리협회 동물병원","latitude":37.8701393,"longitude":126.9832604},"328":{"tel":"031-953-7587","location":"경기도 파주시 문산읍 당동2로 11, 104호","name":"해오름동물병원","latitude":37.8679956,"longitude":126.7839812},"329":{"tel":"428-0275","location":"인천광역시 남동구 남동대로370번길 113, 101호 (논현동)","name":"조은동물병원","latitude":37.4138887,"longitude":126.712039},"330":{"tel":"031-398-0075","location":"경기도 군포시 산본로 347, 5층 (산본동, 이마트백화점)","name":"쿨펫동물병원","latitude":37.3611247,"longitude":126.9315048},"331":{"tel":"0316137509","location":"경기도 화성시 여울로4길 46, 2층 (능동)","name":"나래동물의료센터","latitude":37.2163119,"longitude":127.0558364},"332":{"tel":"02-888-0976","location":"서울특별시 관악구 남부순환로 1964 (봉천동)","name":"나눔 양한방 동물병원","latitude":37.475491,"longitude":126.9668525},"333":{"tel":"02-808-2475","location":"서울특별시 금천구 시흥대로 251 (시흥동, 도일산호시티빌)","name":"금천 24시 K동물의료센터","latitude":37.4561414,"longitude":126.8995362},"334":{"tel":"02-960-7501","location":"서울특별시 동대문구 홍릉로 64-1 (청량리동)","name":"디아크동물병원","latitude":37.585962,"longitude":127.043558},"335":{"tel":"507-7507","location":"경기도 안산시 단원구 선부광장로 71, 101호 (선부동)","name":"유동물병원","latitude":37.332898,"longitude":126.811044},"336":{"tel":"031-618-8275","location":"경기도 평택시 평택로 84-1 (평택동)","name":"김기혁 동물병원 평택동점","latitude":36.9944226,"longitude":127.0845543},"337":{"tel":"574-5957","location":"경기도 남양주시 진접읍 장현로 112-1","name":"강아지나라동물병원","latitude":37.7196848,"longitude":127.1841831},"338":{"tel":"032-566-7589","location":"인천광역시 서구 염곡로464번길 15, 쓰리엠타워 2층 201,202호 (가정동)","name":"가온동물의료센터","latitude":37.5264012,"longitude":126.67092},"339":{"tel":"416-7512","location":"서울특별시 송파구 올림픽로35가길 9, 상가동 2층 207호 (신천동, 잠실 푸르지오 월드마크)","name":"더 샵 동물메디컬센터","latitude":37.5174487,"longitude":127.1036051},"340":{"tel":"398-9975","location":"경기도 군포시 군포로476번길 2, 1층 (당동)","name":"행복나눔동물병원","latitude":37.34865,"longitude":126.9443862},"341":{"tel":"402-9119","location":"서울특별시 송파구 위례성대로 178 (오금동)","name":"준동물병원","latitude":37.5102219,"longitude":127.1306955},"342":{"tel":"031-988-3125","location":"경기도 김포시 초당로61번길 56 (장기동)","name":"이리온","latitude":37.6461019,"longitude":126.6713736},"343":{"tel":"02-402-5746","location":"서울특별시 송파구 동남로18길 23, 무영빌딩 (가락동)","name":"영국동물병원","latitude":37.4942413,"longitude":127.133085},"344":{"tel":"02-333-9558","location":"서울특별시 마포구 양화로 68 (서교동)","name":"뉴욕종합동물병원","latitude":37.5507553,"longitude":126.91607},"345":{"tel":"031-761-1600","location":"경기도 광주시 고불로 32, 107호 (중대동)","name":"알프스동물병원","latitude":37.3938078,"longitude":127.2339221},"346":{"tel":"031-631-0045","location":"경기도 이천시 경충대로2481번길 7 (진리동)","name":"아이동물병원","latitude":37.2704318,"longitude":127.4552169},"347":{"tel":"466-7975","location":"인천광역시 남동구 인하로 608 (구월동)","name":"애니힐동물병원","latitude":37.4426762,"longitude":126.7142687},"348":{"tel":"522-7585","location":"인천광역시 부평구 부개로 61-6 (부개동)","name":"부개종합동물병원","latitude":37.503277,"longitude":126.7395884},"349":{"tel":"585-7573","location":"경기도 가평군 청평면 청평중앙로 55-1","name":"청평동물병원","latitude":37.7384497,"longitude":127.4204355},"350":{"tel":"032-511-5515","location":"인천광역시 부평구 평천로 356 (갈산동, 민상빌딩)","name":"짱구네동물병원","latitude":37.5176095,"longitude":126.7296996},"351":{"tel":"031-941-3030","location":"경기도 파주시 조리읍 봉천로 11","name":"파주유우진료소(산업동물에 대한 출장진료를 전문으로 함)","latitude":37.742383,"longitude":126.8099834},"352":{"tel":"2652-7515","location":"서울특별시 강서구 등촌로 55, 신진통상빌딩 (화곡동)","name":"서울플러스종합동물병원","latitude":37.5348081,"longitude":126.8632647},"353":{"tel":"031-358-0200","location":"경기도 화성시 우정읍 조암북로57번길 1, 1층","name":"홍익메디칼동물병원","latitude":37.0863655,"longitude":126.8201952},"354":{"tel":"843-1415","location":"경기도 의정부시 동일로 468(신곡동)","name":"장암종합동물병원","latitude":37.7301917,"longitude":127.0594418},"355":{"tel":"02-484-5502","location":"서울특별시 강동구 성내로 36, 예원빌딩 (성내동)","name":"가람동물병원","latitude":37.5290356,"longitude":127.1242095},"356":{"tel":"031-425-7541","location":"경기도 의왕시 포일세거리로 3, 112호 (포일동, 파레사타워)","name":"포일동물병원","latitude":37.3959701,"longitude":126.9847629},"357":{"tel":"031-384-3920","location":"경기도 안양시 동안구 관악대로 327-1, 1층 (관양동)","name":"관양동물병원","latitude":37.403834,"longitude":126.9592004},"358":{"tel":"031-763-7583","location":"경기도 광주시 중앙로 69-4 (역동)","name":"나비누리 동물병원","latitude":37.4063974,"longitude":127.2608051},"359":{"tel":"02-952-7582","location":"서울특별시 노원구 노원로 470, 1층 (상계동, 금녕빌딩)","name":"스마트동물병원","latitude":37.6584609,"longitude":127.0657811},"360":{"tel":"721-2423","location":"경기도 성남시 수정구 수정로 110, 1층 (수진동)","name":"서울동물병원","latitude":37.4409446,"longitude":127.1326338},"361":{"tel":"031-792-8575","location":"경기도 하남시 하남대로 792-1, 소원빌딩 1층 (신장동)","name":"하남플러스 동물병원","latitude":37.5407044,"longitude":127.209491},"362":{"tel":"793-8275","location":"경기도 하남시 신장로 176 (덕풍동)","name":"햇살동물병원","latitude":37.5411379,"longitude":127.200295},"363":{"tel":"031-272-8575","location":"경기도 용인시 수지구 성복1로 62, 1층 111, 112호 (성복동, KCC스위첸)","name":"수지성복SL동물병원","latitude":37.3151696,"longitude":127.0730562},"364":{"tel":"0325680022","location":"인천광역시 서구 푸른로7번길 2, 청라호수동물메디컬센터 (청라동)","name":"청라호수동물메디컬센터","latitude":37.5248532,"longitude":126.6301708},"365":{"tel":"031-499-7991","location":"경기도 시흥시 군자천로 335, 2층 201,202호 (정왕동)","name":"애니온동물병원","latitude":37.3466983,"longitude":126.7345963},"366":{"tel":"031-404-7588","location":"경기도 시흥시 은행로 130, 102호 (은행동)","name":"푸른동물종합병원","latitude":37.4425843,"longitude":126.799964},"367":{"tel":"431-0275","location":"서울특별시 송파구 송이로 186, 상가동 1호 (문정동, 성해아파트)","name":"문정탑동물병원","latitude":37.4908659,"longitude":127.1266801},"368":{"tel":"512-3200","location":"경기도 남양주시 도농로 32, 306호 (도농동)","name":"참사랑동물병원","latitude":37.6094318,"longitude":127.1600804},"369":{"tel":"02-6965-7502","location":"서울특별시 중구 을지로38길 20, 뉴천지관광호텔 2층 (을지로5가)","name":"헬릭스동물심장수술센터","latitude":37.5658965,"longitude":127.0033396},"370":{"tel":"02-2297-7570","location":"서울특별시 성동구 독서당로 270, 상가동 2층 206호 (금호동4가, 금호동 대우아파트)","name":"바른동물병원","latitude":37.5459736,"longitude":127.0197248},"371":{"tel":"464-7588","location":"서울특별시 광진구 능동로 407, 2층 (중곡동)","name":"드림펫 동물병원","latitude":37.5654375,"longitude":127.0838097},"372":{"tel":"935-0075","location":"서울특별시 노원구 한글비석로8길 16, 102호 (중계동, 대림벽산상가)","name":"25시동물병원","latitude":37.6472852,"longitude":127.0779304},"373":{"tel":"02-375-7222","location":"서울특별시 마포구 월드컵북로 336 (상암동)","name":"상암동물병원","latitude":37.5760616,"longitude":126.8946837},"374":{"tel":"446-2349","location":"서울특별시 광진구 용마산로 66 (중곡동)","name":"용마동물병원","latitude":37.5595306,"longitude":127.0878992},"375":{"tel":"302-3275","location":"서울특별시 서대문구 응암로 66 (북가좌동)","name":"두리틀동물병원","latitude":37.578842,"longitude":126.9108194},"376":{"tel":"396-5525","location":"서울특별시 서대문구 통일로 463 (홍제동)","name":"홍제동물병원","latitude":37.5896348,"longitude":126.9427443},"377":{"tel":"031-568-0075","location":"경기도 구리시 이문안로 105 (수택동)","name":"내친구동물병원","latitude":37.5918389,"longitude":127.1432586},"378":{"tel":"651-8272","location":"경기도 평택시 평남로 655 (비전동)","name":"튼튼동물병원","latitude":36.9924739,"longitude":127.1072728},"379":{"tel":"868-2526","location":"인천광역시 미추홀구 인주대로 277 (주안동)","name":"삼성동물종합병원","latitude":37.4525489,"longitude":126.6673363},"380":{"tel":"454-9975","location":"서울특별시 광진구 능동로 334 (중곡동)","name":"방주종합동물병원","latitude":37.559332,"longitude":127.0809564},"381":{"tel":"031-283-0775","location":"경기도 용인시 기흥구 신갈로 85 (신갈동)","name":"강남종합동물병원","latitude":37.2743083,"longitude":127.1054807},"382":{"tel":"02-887-2165","location":"서울특별시 관악구 봉천로 236 (신림동)","name":"서진동물병원","latitude":37.4891567,"longitude":126.9275483},"383":{"tel":"0325727475","location":"인천광역시 서구 가정로 295 (석남동)","name":"진현우동물병원","latitude":37.5113926,"longitude":126.6724191},"384":{"tel":"02-715-7575","location":"서울특별시 마포구 창전로 50-1 (구수동)","name":"산책 동물병원","latitude":37.5468688,"longitude":126.9326573},"385":{"tel":"701-8225","location":"경기도 성남시 분당구 분당로263번길 39, 109호 (서현동, 레이디파크)","name":"Dr. 오즈 동물병원","latitude":37.3720449,"longitude":127.140141},"386":{"tel":"031-716-7975","location":"경기도 성남시 분당구 정자로 80, 1층 (정자동, 정자프라자)","name":"그레이트 동물병원","latitude":37.363161,"longitude":127.1137946},"387":{"tel":"2695-0072","location":"서울특별시 강서구 강서로 36 (화곡동)","name":"세인트동물병원","latitude":37.5305189,"longitude":126.8434128},"388":{"tel":"031-214-0025","location":"경기도 수원시 영통구 중부대로 293-3, 2층 (원천동)","name":"공감＋동물의료센터","latitude":37.2740661,"longitude":127.0476417},"389":{"tel":"309-8275","location":"서울특별시 서대문구 거북골로 120 (남가좌동, DMC센트레빌아파트)","name":"프란다스동물병원","latitude":37.5759823,"longitude":126.9156631},"390":{"tel":"031-8011-3690","location":"경기도 이천시 중리천로 135, 미래캐슬2동 (중리동)","name":"24시큰사랑동물병원","latitude":37.2753321,"longitude":127.449656},"391":{"tel":"231-0119","location":"인천광역시 남동구 호구포로 818, 116,117호 (구월동)","name":"바나나동물병원","latitude":37.4555402,"longitude":126.7196665},"392":{"tel":"2695-1231","location":"서울특별시 양천구 남부순환로 347 (신월동)","name":"민병철동물병원","latitude":37.5362141,"longitude":126.8284584},"393":{"tel":"031-692-2250","location":"경기도 평택시 오성면 숙성시장길 65 (명성빌라)","name":"한동물병원 (출장진료 전문)","latitude":37.0085844,"longitude":126.9849338},"394":{"tel":"031-267-8100","location":"경기도 수원시 권선구 동수원로82번길 7-3, 1층 (곡반정동)","name":"튼튼동물병원","latitude":37.2381883,"longitude":127.027807},"395":{"tel":"031-708-3100","location":"경기도 성남시 분당구 판교로 446, 108호 (이매동, 그린프라자)","name":"수아동물병원","latitude":37.4051349,"longitude":127.1233396},"396":{"tel":"032-503-0075","location":"인천광역시 부평구 원적로 392 (산곡동)","name":"세림동물병원","latitude":37.5036378,"longitude":126.7099371},"397":{"tel":"746-8990","location":"경기도 성남시 중원구 희망로 360, 10호 (상대원동)","name":"한국동물병원","latitude":37.4378278,"longitude":127.1583856},"398":{"tel":"410-9759","location":"경기도 안산시 단원구 광덕대로 145, 102호 (고잔동,강희그랜드빌)","name":"쥬시동물병원","latitude":37.3095245,"longitude":126.8289861},"399":{"tel":"028988971","location":"경기도 광명시 오리로 352 (소하동)","name":"온빛동물병원","latitude":37.4339782,"longitude":126.8796888},"400":{"tel":"02-6933-0113","location":"서울특별시 영등포구 당산로36길 12, 111호 (당산동4가, 당산2차삼성아파트)","name":"그림책 읽어주는 동물병원","latitude":37.527856,"longitude":126.8984514},"401":{"tel":"031-859-8275","location":"경기도 양주시 옥정동로7길 30, 2층 1~3호 (옥정동)","name":"24시 양주 힐 동물의료센터","latitude":37.8212402,"longitude":127.0975078},"402":{"tel":"304-5553","location":"서울특별시 은평구 응암로 226 (응암동)","name":"한얼동물병원","latitude":37.592056,"longitude":126.9179327},"403":{"tel":"02-6085-7750","location":"서울특별시 성동구 독서당로 289 (금호동4가,지상1층)","name":"아지동물병원","latitude":37.5480473,"longitude":127.0210637},"404":{"tel":"02-335-5232","location":"서울특별시 마포구 독막로 85 (상수동)","name":"셀레네동물병원","latitude":37.5479336,"longitude":126.9227373},"405":{"tel":"02-832-7975","location":"서울특별시 영등포구 가마산로 442, 상가동 B207, 208호 (신길동, 래미안프레비뉴)","name":"라이프 동물병원","latitude":37.5049213,"longitude":126.9081694},"406":{"tel":"3665-1838","location":"서울특별시 강서구 양천로 431 (가양동, 홈플러스가양점)","name":"가양쿨펫동물병원","latitude":37.5636167,"longitude":126.8504447},"407":{"tel":"719-7070","location":"서울특별시 용산구 새창로 122-2(용문동)","name":"원효종합동물병원","latitude":37.5365448,"longitude":126.9607335},"408":{"tel":"574-7595","location":"경기도 남양주시 진접읍 장현로 134-2","name":"드림동물병원","latitude":37.7208108,"longitude":127.186174},"409":{"tel":"0319662777","location":"경기도 고양시 일산동구 고양대로 1139 (식사동)","name":"해밀동물병원","latitude":37.6654734,"longitude":126.8158641},"410":{"tel":"031-292-1682","location":"경기도 수원시 권선구 금곡로118번길 50, 1층 (금곡동)","name":"퀸즈동물병원","latitude":37.2720004,"longitude":126.9430612},"411":{"tel":"493-7582","location":"서울특별시 중랑구 면목로 311 (면목동)","name":"성지동물병원","latitude":37.5799188,"longitude":127.0877926},"412":{"tel":"332-2883","location":"서울특별시 서대문구 연희로25길 101 (연희동)","name":"연희동물병원","latitude":37.5691838,"longitude":126.9320934},"413":{"tel":"908-7585","location":"서울특별시 노원구 동일로 1356, 상가동 2층 201호 (상계동, 상계주공4단지아파트)","name":"시마동물병원","latitude":37.6500683,"longitude":127.0622109},"414":{"tel":"861-3355","location":"경기도 동두천시 중앙로 134-12 (지행동, 예일복합타워(104,105))","name":"이담동물병원","latitude":37.8931115,"longitude":127.05324},"415":{"tel":"928-7582","location":"서울특별시 성북구 동소문로 74 (동소문동5가)","name":"드림동물병원","latitude":37.5918494,"longitude":127.0137124},"416":{"tel":"031-216-0133","location":"경기도 용인시 수지구 광교호수로378번길 4-6, 1층 (상현동)","name":"마루한동물병원","latitude":37.2978757,"longitude":127.0801671},"417":{"tel":"031-221-2410","location":"경기도 수원시 팔달구 효원로 53 (매산로3가)","name":"두리동물클리닉","latitude":37.2688308,"longitude":127.0092828},"418":{"tel":"031-377-7582","location":"경기도 오산시 성호대로 108 (원동)","name":"오산동물병원","latitude":37.1486219,"longitude":127.0732717},"419":{"tel":"0312127515","location":"경기도 용인시 수지구 광교마을로 91, 102,103호 (상현동)","name":"광교호수 동물병원","latitude":37.2977518,"longitude":127.0746866},"420":{"tel":"794-1255","location":"서울특별시 용산구 한남대로 76, 한남프라자 2층 (한남동)","name":"달래동물의료센터","latitude":37.5355645,"longitude":127.0065288},"421":{"tel":"031-293-0075","location":"경기도 화성시 봉담읍 동화새터길 5","name":"봉담우리애동물병원","latitude":37.2233506,"longitude":126.9528001},"422":{"tel":"851-1368","location":"서울특별시 구로구 도림로 98 (구로동)","name":"사랑동물병원","latitude":37.4908521,"longitude":126.8939138},"423":{"tel":"031-241-8575","location":"경기도 수원시 장안구 월드컵로 425-2 (연무동)","name":"나은동물병원","latitude":37.2934192,"longitude":127.0255762},"424":{"tel":"0325652943","location":"인천광역시 서구 청중로478번안길 4, 2층 (가정동)","name":"쪼꼬동물메디컬센터","latitude":37.529375,"longitude":126.6650325},"425":{"tel":"749-8275","location":"서울특별시 용산구 신흥로 36-1 (용산동2가)","name":"한사랑동물병원","latitude":37.5417101,"longitude":126.9874142},"426":{"tel":"02-6227-7582","location":"서울특별시 송파구 가락로 258, 세림빌딩 1층 (방이동)","name":"라임동물병원","latitude":37.5109339,"longitude":127.1189365},"427":{"tel":"02-3443-8275","location":"서울특별시 강남구 선릉로 620, 1층 (삼성동)","name":"닥터펫동물의료센터","latitude":37.5120961,"longitude":127.0435158},"428":{"tel":"031-847-7720","location":"경기도 양주시 고읍로 166, 1,2층 전부호 (만송동)","name":"로뎀나무 동물의료센터","latitude":37.7913345,"longitude":127.0875324},"429":{"tel":"464-4488","location":"인천광역시 남동구 구월로 364 (만수동)","name":"젬마동물병원","latitude":37.4548158,"longitude":126.7310851},"430":{"tel":"02-711-3375","location":"서울특별시 마포구 독막로 295 (염리동, 삼부골든타워106호)","name":"굿모닝 동물병원","latitude":37.5447075,"longitude":126.9460487},"431":{"tel":"032-583-1119","location":"인천광역시 서구 가정로 246, 203호 (석남동)","name":"굿모닝동물병원","latitude":37.5067899,"longitude":126.6725803},"432":{"tel":"02-555-2272","location":"서울특별시 송파구 가락로 169, 1층 102호 (송파동)","name":"라온펫동물병원","latitude":37.5040931,"longitude":127.1138912},"433":{"tel":"031-713-2111","location":"경기도 성남시 분당구 정자일로 248, 112호 (정자동, 파크뷰상가)","name":"분당파크뷰 동물병원","latitude":37.3747253,"longitude":127.1068852},"434":{"tel":"02-987-7959","location":"서울특별시 강북구 도봉로 202 (미아동)","name":"위즈동물병원","latitude":37.6267469,"longitude":127.0263209},"435":{"tel":"553-7975","location":"인천광역시 계양구 계양문화로 119 (용종동, 인천 계양 코아루 센트럴파크)","name":"닥터팬더 동물병원","latitude":37.5418479,"longitude":126.737849},"436":{"tel":"2644-5975","location":"서울특별시 강서구 곰달래로 260, 피앤와이빌딩 1층 3호 (화곡동)","name":"하트온동물병원","latitude":37.5319694,"longitude":126.8617998},"437":{"tel":"031-643-0010","location":"경기도 이천시 장호원읍 장감로 23","name":"장호원동물병원","latitude":37.1161556,"longitude":127.6252934},"438":{"tel":"02-984-7588","location":"서울특별시 강북구 삼양로27길 35-21, 미아프라자 106호 (미아동)","name":"H 동물병원","latitude":37.6179565,"longitude":127.0189465},"439":{"tel":"031-548-2475","location":"경기도 수원시 권선구 권선로 715, 1층 (권선동)","name":"24시 숨 동물병원","latitude":37.2587321,"longitude":127.0296131},"440":{"tel":"032-524-0075","location":"인천광역시 부평구 경원대로 1355 (부평동)","name":"도그앤캣동물병원","latitude":37.4914019,"longitude":126.7194572},"441":{"tel":"02-2038-7555","location":"서울특별시 중구 다산로 230, 하나빌딩 1층 (신당동)","name":"메종동물병원","latitude":37.5635013,"longitude":127.0159837},"442":{"tel":"02-857-7572","location":"서울특별시 관악구 난곡로 223-1, 1층 (신림동)","name":"늘푸른동물병원","latitude":37.4742353,"longitude":126.9168947},"443":{"tel":"031-238-0075","location":"경기도 수원시 영통구 권선로 805, 1층 (매탄동, 김정문알로에)","name":"효원동물병원","latitude":37.2556859,"longitude":127.0390556},"444":{"tel":"582-2412","location":"경기도 가평군 가평읍 오리나무길 27 (조은장여관)","name":"가평가축병원","latitude":37.8250258,"longitude":127.5142279},"445":{"tel":"02-572-9300","location":"서울특별시 강남구 남부순환로 2737, 1층 (도곡동)","name":"우리집동물병원","latitude":37.4864868,"longitude":127.0451748},"446":{"tel":"951-7582","location":"서울특별시 노원구 동일로 1370 (상계동)","name":"(주)한빛종합동물병원","latitude":37.6509299,"longitude":127.0618886},"447":{"tel":"3275-0079","location":"서울특별시 용산구 백범로 285, 지상1층 (효창동)","name":"펫동물병원","latitude":37.5395985,"longitude":126.9610904},"448":{"tel":"02-707-2340","location":"서울특별시 마포구 대흥로 48 (대흥동)","name":"용강동물병원","latitude":37.5448443,"longitude":126.9394979},"449":{"tel":"031-752-0075","location":"경기도 성남시 분당구 양현로 479, 2층 (야탑동)","name":"젠(Gen)동물병원","latitude":37.4166509,"longitude":127.135448},"450":{"tel":"031-831-3531","location":"경기도 화성시 동탄반석로 156 (반송동, 동탄하이페리온)","name":"24시동탄윌동물의료센터","latitude":37.2023358,"longitude":127.0715531},"451":{"tel":"070-4624-0075","location":"경기도 하남시 신장로 202, 1층 (덕풍동)","name":"하남숲동물병원","latitude":37.5431877,"longitude":127.1989657},"452":{"tel":"02-2607-7582","location":"서울특별시 양천구 신월로 124, 1층 (신월동)","name":"신월동물병원","latitude":37.5162836,"longitude":126.8377617},"453":{"tel":"031-267-0975","location":"경기도 수원시 팔달구 인계로108번길 4 (인계동)","name":"애니존동물병원","latitude":37.2676549,"longitude":127.0291735},"454":{"tel":"031-840-0075","location":"경기도 의정부시 추동로 13 (신곡동)","name":"오즈동물병원","latitude":37.7431321,"longitude":127.0574825},"455":{"tel":"8016-5559","location":"경기도 성남시 분당구 서판교로 160, 101호 (판교동, 스타식스밸리)","name":"동물병원 돌봄","latitude":37.4002687,"longitude":127.0947974},"456":{"tel":"031-902-1375","location":"경기도 고양시 일산동구 중앙로 1124, 1층 (백석동, 이마트전용관)","name":"일산 클래식 동물병원","latitude":37.6479812,"longitude":126.7824663},"457":{"tel":"031-944-9075","location":"경기도 파주시 미래로 620, 112호 (와동동, 해솔프라자)","name":"운정W동물병원","latitude":37.7323949,"longitude":126.7510825},"458":{"tel":"02-504-7588","location":"경기도 과천시 별양상가1로 38, 백두빌딩 1층 110호 (별양동)","name":"구자동동물병원","latitude":37.428172,"longitude":126.9935687},"459":{"tel":"424-3662","location":"서울특별시 송파구 송파대로 378 (송파동)","name":"송파동물의료센터","latitude":37.5015667,"longitude":127.1110061},"460":{"tel":"793-7802","location":"경기도 하남시 신평로 37 (덕풍동)","name":"하남동물병원","latitude":37.5371527,"longitude":127.2040535},"461":{"tel":"031-264-7525","location":"경기도 용인시 수지구 만현로 110 (상현동)","name":"참누리동물병원","latitude":37.3068172,"longitude":127.0845336},"462":{"tel":"02-963-7582","location":"서울특별시 동대문구 홍릉로 48-1, 1층 (청량리동)","name":"푸른종합동물병원","latitude":37.5845839,"longitude":127.0440851},"463":{"tel":"468-6612","location":"서울특별시 광진구 능동로 49 (자양동, 영지빌딩)","name":"로얄 도그앤캣 메디컬센터","latitude":37.5358196,"longitude":127.0683448},"464":{"tel":"02-6952-2475","location":"경기도 광명시 오리로 870, 서희스타힐스빌딩 2층 (철산동)","name":"광명 24 아이디동물의료센터","latitude":37.476082,"longitude":126.8659601},"465":{"tel":"02-2039-9930","location":"서울특별시 광진구 자양로15길 30, 1층 (자양동)","name":"우주동물병원","latitude":37.53569,"longitude":127.0819111},"466":{"tel":"031-731-0025","location":"경기도 성남시 중원구 산성대로504번길 1 (은행동)","name":"25시 동물병원","latitude":37.4560474,"longitude":127.1629628},"467":{"tel":"546-0079,","location":"인천광역시 계양구 계양대로 81 (작전동)","name":"해림동물병원","latitude":37.5310988,"longitude":126.7221983},"468":{"tel":"997-0075","location":"서울특별시 도봉구 해등로 184 (쌍문동)","name":"태일동물종합병원","latitude":37.657954,"longitude":127.0364354},"469":{"tel":"0234220977","location":"서울특별시 중랑구 신내로 225, 디아뜨갤러리 142호 (신내동)","name":"하니동물병원","latitude":37.61696,"longitude":127.0913012},"470":{"tel":"0323280079","location":"경기도 부천시 조마루로97번길 34-9 (상동)","name":"상동물병원","latitude":37.501871,"longitude":126.7553672},"471":{"tel":"02-949-0975","location":"서울특별시 노원구 마들로3길 15, 월계이마트 2층 (월계동)","name":"웰니스 동물병원","latitude":37.6273469,"longitude":127.0618674},"472":{"tel":"711-7509","location":"경기도 성남시 분당구 탄천상로151번길 20, 월드쇼핑,삼성SDA (구미동)","name":"쿨펫동물병원","latitude":37.34008,"longitude":127.1069719},"473":{"tel":"665-7763","location":"경기도 평택시 청북읍 율북로 13","name":"건국동물병원 (출장진료 전문)","latitude":37.0519537,"longitude":126.9823399},"474":{"tel":"028071616","location":"서울특별시 금천구 금하로1라길 35, 1층 (독산동)","name":"조아동물병원","latitude":37.4538083,"longitude":126.8903745},"475":{"tel":"8015-3178","location":"경기도 화성시 동탄솔빛로 48, 103~104호 (반송동, 거택프라자)","name":"21세기동물병원","latitude":37.1931568,"longitude":127.0733803},"476":{"tel":"031-763-0170","location":"경기도 광주시 중앙로 179 (송정동)","name":"금강동물병원","latitude":37.4156152,"longitude":127.2566731},"477":{"tel":"2256-7582","location":"서울특별시 중구 동호로 178 (신당동)","name":"웰펫동물병원","latitude":37.5543009,"longitude":127.0114793},"478":{"tel":"954-6990","location":"서울특별시 도봉구 도봉로180길 28, 도봉투웨니퍼스트2단지 (도봉동)","name":"해봄동물병원","latitude":37.6825416,"longitude":127.0474958},"479":{"tel":"919-1175","location":"경기도 고양시 일산서구 경의로 844 (덕이동)","name":"조이동물병원","latitude":37.6928797,"longitude":126.7598383},"480":{"tel":"02-3152-0075","location":"서울특별시 은평구 백련산로 29 (응암동)","name":"참좋은동물병원","latitude":37.5882313,"longitude":126.9224658},"481":{"tel":"031-771-7278","location":"경기도 양평군 양서면 양수로 170, 1층","name":"개포동물병원","latitude":37.5453127,"longitude":127.3177163},"482":{"tel":"2642-8653","location":"서울특별시 양천구 등촌로 172, 등촌빌딩 A동 102호 (목동)","name":"토론토 동물병원","latitude":37.5450331,"longitude":126.8626318},"483":{"tel":"512-2575","location":"서울특별시 강남구 삼성로 573 (삼성동)","name":"마이펫동물의료센터","latitude":37.5125572,"longitude":127.0531888},"484":{"tel":"2645-1475","location":"서울특별시 양천구 등촌로 218, 혜인빌딩 (목동)","name":"혜인종합 동물병원","latitude":37.5491617,"longitude":126.8639124},"485":{"tel":"561-7508","location":"인천광역시 서구 원당대로 853, 1층 102, 103호 (원당동, 삼정프라자)","name":"메이플동물병원","latitude":37.5940185,"longitude":126.6964177},"486":{"tel":"02-433-3387","location":"서울특별시 중랑구 봉화산로 232, B동 1층 (신내동)","name":"행복이 있는 동물병원","latitude":37.607809,"longitude":127.0981561},"487":{"tel":"414-7588","location":"서울특별시 송파구 올림픽로 88, 올림픽타워 101호 (잠실동)","name":"희망종합동물병원","latitude":37.5114219,"longitude":127.0805355},"488":{"tel":"676-7584","location":"경기도 부천시 평천로 718 (삼정동)","name":"햇빛 동물병원","latitude":37.5149204,"longitude":126.7707323},"489":{"tel":"031-202-7501","location":"경기도 수원시 영통구 권선로908번길 31, 103,104호 (신동)","name":"새싹 동물병원","latitude":37.2473043,"longitude":127.0450423},"490":{"tel":"462-8277","location":"경기도 의왕시 부곡중앙로 41 (삼동)","name":"유동물병원","latitude":37.3213461,"longitude":126.9535403},"491":{"tel":"02-3474-7582","location":"서울특별시 서초구 효령로 347, 서광빌딩 1층 (서초동)","name":"서초이음동물병원","latitude":37.4868754,"longitude":127.022012},"492":{"tel":"02-2244-1081","location":"서울특별시 동대문구 사가정로 121 (전농동)","name":"주주동물병원","latitude":37.5778792,"longitude":127.0584876},"493":{"tel":"3426-5079","location":"서울특별시 강동구 올림픽로 793, 내호빌딩 1층 (암사동)","name":"암사동물병원","latitude":37.552014,"longitude":127.1279333},"494":{"tel":"3491-8000","location":"서울특별시 도봉구 도봉로 669, 1층 (방학동)","name":"현대종합동물병원","latitude":37.664414,"longitude":127.0420751},"495":{"tel":"514-7582","location":"서울특별시 강남구 봉은사로 205, 상하빌딩 1층 (논현동)","name":"강남동물병원","latitude":37.507782,"longitude":127.0344798},"496":{"tel":"8003-7595","location":"경기도 화성시 동탄원천로 354-11, 106~107호 (능동)","name":"해솔동물병원","latitude":37.2187911,"longitude":127.0579175},"497":{"tel":"070-8807-8375","location":"경기도 용인시 처인구 백암면 백암로185번길 46","name":"마리동물의료센터","latitude":37.1642302,"longitude":127.371815},"498":{"tel":"605-5119","location":"경기도 성남시 분당구 야탑로 24, 101호 (야탑동, 덕인빌딩)","name":"분당24시동물의료센터","latitude":37.408569,"longitude":127.1216004},"499":{"tel":"02-518-7500","location":"서울특별시 강서구 화곡로 371 (등촌동)","name":"강서YD동물의료센터","latitude":37.5569589,"longitude":126.8521935},"500":{"tel":"031-771-7585","location":"경기도 양평군 용문면 다문중앙1길 3","name":"용문조아동물병원","latitude":37.4842222,"longitude":127.5925689},"501":{"tel":"032-611-0275","location":"경기도 부천시 경인로 102 (송내동)","name":"런던동물병원","latitude":37.4837957,"longitude":126.7667186},"502":{"tel":"900-7555","location":"서울특별시 도봉구 해등로26길 7, 111, 112호 (쌍문동)","name":"아이조은동물병원","latitude":37.6585123,"longitude":127.0326315},"503":{"tel":"885-7588","location":"경기도 여주시 세종로 151 (홍문동)","name":"쿨펫동물병원","latitude":37.2839183,"longitude":127.6373235},"504":{"tel":"031-215-8588","location":"경기도 수원시 영통구 동탄원천로1109번길 100 (매탄동)","name":"라온동물병원","latitude":37.27087,"longitude":127.0534773},"505":{"tel":"032-752-4575","location":"인천광역시 중구 자연대로 40, 109호 (중산동, 비젼프라자II)","name":"숲속동물병원","latitude":37.4889644,"longitude":126.5601377},"506":{"tel":"683-5137","location":"경기도 부천시 역곡로 473 (고강동)","name":"고강동물병원","latitude":37.5268957,"longitude":126.8157914},"507":{"tel":"321-7510","location":"경기도 용인시 처인구 백옥대로 1058, 남곡빌딩 (김량장동)","name":"용인센트럴동물병원","latitude":37.2302958,"longitude":127.2106182},"508":{"tel":"332-7951","location":"경기도 용인시 처인구 원삼면 좌찬로 93","name":"한솔동물병원","latitude":37.2039441,"longitude":127.320352},"509":{"tel":"568-7975","location":"서울특별시 강남구 역삼로 235 (역삼동)","name":"위너스 동물병원","latitude":37.4975845,"longitude":127.0421445},"510":{"tel":"6053-6052","location":"서울특별시 강남구 일원로14길 25, 상가동 102호 (일원동, 푸른마을아파트)","name":"수정동물병원","latitude":37.4838642,"longitude":127.0808681},"511":{"tel":"764-3033","location":"경기도 광주시 고불로 54 (중대동)","name":"푸른동물병원","latitude":37.3932709,"longitude":127.2320353},"512":{"tel":"031-252-2501","location":"경기도 수원시 장안구 창룡대로 173 (연무동)","name":"펫콤동물병원","latitude":37.2921843,"longitude":127.0289788},"513":{"tel":"031-311-4148","location":"경기도 시흥시 삼미시장1길 19 (신천동)","name":"청안동물병원","latitude":37.4405953,"longitude":126.7839063},"514":{"tel":"031-266-2900","location":"경기도 용인시 수지구 동천로 60, 1층 (동천동)","name":"에이스 동물병원","latitude":37.3403544,"longitude":127.0965456},"515":{"tel":"031-234-8275","location":"경기도 수원시 권선구 세권로166번길 26 (권선동)","name":"수원펫 동물병원","latitude":37.2549927,"longitude":127.0217123},"516":{"tel":"02-2692-8275","location":"서울특별시 강서구 강서로18길 17 (화곡동)","name":"한마음동물병원","latitude":37.5470455,"longitude":126.8474267},"517":{"tel":"02-2214-6129","location":"서울특별시 동대문구 전농로 77(답십리동)","name":"그랜드동물병원","latitude":37.5718131,"longitude":127.0571104},"518":{"tel":"982-8698","location":"서울특별시 강북구 도봉로 88 (미아동)","name":"중앙동물병원","latitude":37.6170331,"longitude":127.0303924},"519":{"tel":"031-643-5545","location":"경기도 이천시 설성면 신암로 91","name":"J&C 동물병원","latitude":37.135643,"longitude":127.5487992},"520":{"tel":"598-9875","location":"서울특별시 서초구 사임당로 97, 1층 (서초동)","name":"강남서초 동물병원","latitude":37.4902858,"longitude":127.0203815},"521":{"tel":"02-790-7508","location":"서울특별시 용산구 신흥로 54, 106호 (용산동2가, 북동연립)","name":"퍼스동물병원","latitude":37.5431022,"longitude":126.9878461},"522":{"tel":"02-359-2020","location":"서울특별시 은평구 통일로 817 (대조동)","name":"Dr.윤24시동물병원","latitude":37.6165602,"longitude":126.9231877},"523":{"tel":"02-521-5775","location":"서울특별시 동작구 사당로 196, 1층 102호 (사당동, 거묵프리미엄 상가)","name":"나을동물병원","latitude":37.4849416,"longitude":126.9699092},"524":{"tel":"932-0075~6","location":"경기도 고양시 일산동구 일산로394번길 5-11 (정발산동)","name":"Dr. dog 동물영상의료센터","latitude":37.6706899,"longitude":126.7812262},"525":{"tel":"031-772-1261","location":"경기도 양평군 양평읍 중앙로 71-1, 1층","name":"중앙동물병원","latitude":37.4951579,"longitude":127.4971262},"526":{"tel":"031-239-7585","location":"경기도 수원시 팔달구 권광로 120 (인계동)","name":"정동물병원","latitude":37.2583991,"longitude":127.0308444},"527":{"tel":"226-2465","location":"경기도 화성시 봉담읍 효행로 216","name":"성균동물병원","latitude":37.2283915,"longitude":126.970941},"528":{"tel":"423-8280","location":"서울특별시 송파구 올림픽로 119, 잠실파인애플상가 A동 2층 9,10호 (잠실동)","name":"연 동물병원","latitude":37.5121038,"longitude":127.0842061},"529":{"tel":"894-3030","location":"서울특별시 금천구 독산로 58 (시흥동)","name":"제일종합동물병원","latitude":37.4525781,"longitude":126.9062372},"530":{"tel":"031-972-7582","location":"경기도 고양시 덕양구 중앙로558번길 21 (행신동)","name":"아마존","latitude":37.6246736,"longitude":126.8359392},"531":{"tel":"929-5496","location":"서울특별시 성북구 동소문로 66 (동소문동3가)","name":"나래종합동물병원","latitude":37.5914069,"longitude":127.0129836},"532":{"tel":"031-852-7502","location":"경기도 의정부시 민락로 210, 4층 (민락동, 이마트)","name":"위즈펫동물병원","latitude":37.7431637,"longitude":127.1023459},"533":{"tel":"654-2505","location":"경기도 평택시 문화촌로11번길 51-11 (비전동)","name":"믿음동물병원(출장진료 전문)","latitude":36.9976683,"longitude":127.1129692},"534":{"tel":"031-945-7297","location":"경기도 파주시 중앙로 255 (금촌동, 금남빌딩)","name":"리버풀동물병원","latitude":37.758949,"longitude":126.7778148},"535":{"tel":"554-8875","location":"서울특별시 강남구 언주로 314, 105호 (역삼동)","name":"도곡종합동물병원","latitude":37.4959635,"longitude":127.0466818},"536":{"tel":"429-1673","location":"인천광역시 남동구 문화서로3번길 7 (구월동)","name":"보람동물병원","latitude":37.4459834,"longitude":126.6948504},"537":{"tel":"7687599","location":"경기도 광주시 경안천로 5 (송정동,1층)","name":"동현24시동물병원","latitude":37.4141886,"longitude":127.2608402},"538":{"tel":"472-7343","location":"서울특별시 강동구 양재대로 1532 (길동)","name":"강동동물병원","latitude":37.5423871,"longitude":127.1419527},"539":{"tel":"02-949-7582","location":"서울특별시 노원구 노원로1길 9 (공릉동, 해중빌딩)","name":"키움 동물병원","latitude":37.6222024,"longitude":127.0864019},"540":{"tel":"674-6551","location":"경기도 안성시 일죽면 금일로 428","name":"일죽종합동물병원","latitude":37.0899056,"longitude":127.4772869},"541":{"tel":"02-592-8875","location":"서울특별시 동작구 사당로23나길 30 (사당동,1층)","name":"이수동물병원","latitude":37.4876903,"longitude":126.9755645},"542":{"tel":"410-6125","location":"경기도 안산시 단원구 한양대학로 208, 2층 (고잔동)","name":"스타동물병원","latitude":37.3135808,"longitude":126.8367492},"543":{"tel":"408-8584","location":"경기도 안산시 상록구 용신로 266 (사동)","name":"도란도란동물병원","latitude":37.3030166,"longitude":126.851928},"544":{"tel":"031-376-7800","location":"경기도 화성시 동탄순환대로 127-19 (산척동)","name":"동탄호수동물병원","latitude":37.167406,"longitude":127.1072635},"545":{"tel":"706-7595","location":"경기도 성남시 분당구 성남대로779번길 52, 신흥코아 102호 (이매동)","name":"아름동물병원","latitude":37.399521,"longitude":127.1228062},"546":{"tel":"031-8003-8831","location":"경기도 화성시 동탄지성로 145 (능동)","name":"동탄동물병원","latitude":37.2096461,"longitude":127.059332},"547":{"tel":"02-2234-7585","location":"서울특별시 중구 청계천로 400, 지하 1층 (황학동, 롯데캐슬베네치아)","name":"웰니스클리닉(청계천점)","latitude":37.5709976,"longitude":127.0214096},"548":{"tel":"736-5834","location":"서울특별시 서대문구 통일로 375 (홍제동)","name":"빛가온동물병원","latitude":37.5835271,"longitude":126.9493114},"549":{"tel":"031-665-7585","location":"경기도 평택시 경기대로 1511 (지산동)","name":"김대일동물병원","latitude":37.0793383,"longitude":127.0626965},"550":{"tel":"031-374-0275","location":"경기도 화성시 동탄치동천로3길 42, 1층 (영천동)","name":"쥬만지동물의료센터","latitude":37.2027314,"longitude":127.1237253},"551":{"tel":"415-7579","location":"서울특별시 송파구 올림픽로 435, 상가동 1층 36호 (신천동, 파크리오)","name":"리오동물병원","latitude":37.5205497,"longitude":127.1061782},"552":{"tel":"6369-0075","location":"서울특별시 도봉구 마들로 695, 1층 (도봉동)","name":"빛가온동물병원","latitude":37.6721969,"longitude":127.0463855},"553":{"tel":"02-426-7722","location":"서울특별시 강동구 아리수로 421, MIDC빌딩 101호 (강일동)","name":"아프리카동물병원","latitude":37.5646256,"longitude":127.1741056},"554":{"tel":"02-2652-1865","location":"서울특별시 양천구 신목로 78 (신정동)","name":"리더스 동물병원","latitude":37.5216472,"longitude":126.8742392},"555":{"tel":"02-532-5119","location":"서울특별시 서초구 동광로 15, 1층 (방배동)","name":"헤이븐동물병원","latitude":37.4910691,"longitude":126.9845739},"556":{"tel":"031-898-3708","location":"경기도 용인시 기흥구 보정로 32 (보정동, 지젤스포츠클럽)","name":"보정동물병원","latitude":37.3140179,"longitude":127.1112131},"557":{"tel":"02-822-7574","location":"서울특별시 동작구 상도로 171, 1층 (상도동)","name":"하나사랑동물병원","latitude":37.5044966,"longitude":126.9380038},"558":{"tel":"899-8779","location":"경기도 광명시 소하로 97, 3층 (소하동)","name":"웰니스 동물병원","latitude":37.4466139,"longitude":126.8845618},"559":{"tel":"02-2088-7775","location":"서울특별시 송파구 송파대로 450 (송파동)","name":"샤인동물메디컬센터","latitude":37.506861,"longitude":127.106184},"560":{"tel":"032-529-9633","location":"인천광역시 부평구 마장로 383 (산곡동)","name":"애나동물병원","latitude":37.5123946,"longitude":126.7035952},"561":{"tel":"02-2043-7582","location":"서울특별시 송파구 양재대로 1148, 왕천빌딩 1층 (오금동)","name":"유앤동물의료원","latitude":37.5097027,"longitude":127.1273386},"562":{"tel":"573-7582","location":"서울특별시 강남구 논현로 70, 1층 (개포동, 동성빌딩)","name":"개포별빛동물병원","latitude":37.4764469,"longitude":127.0463206},"563":{"tel":"335-8275","location":"경기도 용인시 처인구 금령로 26 (김량장동)","name":"애견종합병원","latitude":37.2346752,"longitude":127.1989363},"564":{"tel":"281-7585","location":"경기도 용인시 기흥구 구갈로 53 (구갈동)","name":"24시동물병원","latitude":37.2791109,"longitude":127.1110066},"565":{"tel":"558-9119","location":"경기도 남양주시 와부읍 수레로 34-1","name":"내품애동물병원","latitude":37.5873352,"longitude":127.2160271},"566":{"tel":"02-2069-0082","location":"서울특별시 영등포구 당산로 42, 4층 (문래동3가, 삼성홈플러스빌딩)","name":"도그플러스동물병원","latitude":37.5182266,"longitude":126.8959467},"567":{"tel":"031-315-5119","location":"경기도 시흥시 인선1길 8, 301, 302호 (장곡동)","name":"연희동물의료원","latitude":37.3777685,"longitude":126.787907},"568":{"tel":"02-448-6400","location":"서울특별시 송파구 위례송파로 77, 위례우성어반타워 3층 303~307호 (거여동)","name":"24시 스탠다드 동물의료센터","latitude":37.4854739,"longitude":127.1424706},"569":{"tel":"903-5525","location":"서울특별시 강북구 삼양로 336, 예향교회 1층 (수유동)","name":"보노보노동물병원","latitude":37.6334666,"longitude":127.0177615},"570":{"tel":"031-879-7433","location":"경기도 양주시 백석읍 꿈나무로 163","name":"백석동물병원","latitude":37.7949192,"longitude":126.9892226},"571":{"tel":"02-2686-7582","location":"경기도 광명시 광덕산로 5, 종합상가동 112호 (철산동)","name":"김민성 동물병원","latitude":37.472231,"longitude":126.8691211},"572":{"tel":"02-2281-5200","location":"서울특별시 성동구 왕십리로 282 (행당동)","name":"한양동물메디컬센터","latitude":37.5596698,"longitude":127.0370358},"573":{"tel":"904-2345","location":"경기도 고양시 일산서구 중앙로 1443, 가람상가 208호 (주엽동)","name":"반딧불 동물병원","latitude":37.6704129,"longitude":126.7597509},"574":{"tel":"031-444-0275","location":"경기도 안양시 만안구 안양로 258 (안양동)","name":"중앙동물병원","latitude":37.3958171,"longitude":126.9243345},"575":{"tel":"02-441-5515","location":"서울특별시 강동구 아리수로50길 50 (고덕동, 래미안힐스테이트고덕 상가 2층 212,213호)","name":"고덕 고래힐동물병원","latitude":37.5589584,"longitude":127.1471016},"576":{"tel":"985-7525","location":"서울특별시 강북구 오현로 194 (번동, 덕수빌딩 1층)","name":"강북동물병원","latitude":37.6288176,"longitude":127.0399072},"577":{"tel":"031-932-0075","location":"경기도 고양시 일산동구 일산로394번길 5-9 (정발산동)","name":"Dr.dog동물의료센터","latitude":37.6706302,"longitude":126.7810656},"578":{"tel":"399-7599","location":"경기도 군포시 산본로343번길 23, 104호 (산본동)","name":"강남동물병원","latitude":37.3598786,"longitude":126.9303569},"579":{"tel":"02-322-1275","location":"서울특별시 마포구 동교로 193 (동교동)","name":"워너비 동물병원","latitude":37.5577143,"longitude":126.9225114},"580":{"tel":"02-875-7579","location":"서울특별시 관악구 남부순환로 1811, 신원메트로빌 (봉천동)","name":"서울허브동물병원","latitude":37.4817614,"longitude":126.9514522},"581":{"tel":"2645-7588","location":"서울특별시 양천구 목동서로 77, 현대월드타워 160호 (목동)","name":"가나종합동물병원","latitude":37.5359968,"longitude":126.8780309},"582":{"tel":"031-913-8820","location":"경기도 고양시 일산동구 호수로 678 (장항동)","name":"스마트동물병원","latitude":37.6618211,"longitude":126.7648495},"583":{"tel":"02-6925-4347","location":"서울특별시 성북구 오패산로 75-1 (하월곡동)","name":"넬 동물의료센터","latitude":37.6088022,"longitude":127.035794},"584":{"tel":"772-2727","location":"경기도 양평군 양평읍 미리내길 96","name":"유일동물병원","latitude":37.4810907,"longitude":127.5348018},"585":{"tel":"02-375-1963","location":"서울특별시 마포구 월드컵북로 167 (성산동)","name":"와우 동물병원","latitude":37.5670182,"longitude":126.9097948},"586":{"tel":"0312020119","location":"경기도 수원시 영통구 덕영대로 1509(영통동)","name":"24시수원동물메디컬센터","latitude":37.2461662,"longitude":127.0559382},"587":{"tel":"031-658-3500","location":"경기도 평택시 만세로 1725, 2층 (죽백동)","name":"24시평택청담동물의료센터","latitude":37.0125383,"longitude":127.1116382},"588":{"tel":"877-0675(6)","location":"경기도 의정부시 신흥로 357-1 (가능동)","name":"신촌동물병원","latitude":37.7482809,"longitude":127.0424561},"589":{"tel":"031-674-4432","location":"경기도 안성시 보개면 양협길 29-67","name":"고려동물병원 (출장전문동물병원)","latitude":37.0122306,"longitude":127.3218753},"590":{"tel":"437-8275","location":"인천광역시 남동구 논고개로 71 (논현동, 가산타워 104호)","name":"우리집동물병원","latitude":37.3980412,"longitude":126.7267978},"591":{"tel":"031-997-7588","location":"경기도 김포시 김포한강7로 71 (구래동, 이마트 김포한강점 2층)","name":"쿨펫동물병원","latitude":37.6444267,"longitude":126.6281963},"592":{"tel":"02-792-2561","location":"서울특별시 용산구 서빙고로 67, 지하1층 비21호 (용산동5가, 파크타워)","name":"바다동물병원(Bada Animal Hospital)","latitude":37.5242783,"longitude":126.9706853},"593":{"tel":"02-6949-0413","location":"서울특별시 양천구 목동중앙로 89, 1층 (목동)","name":"봄날동물병원","latitude":37.5372722,"longitude":126.8718753},"594":{"tel":"781-2992","location":"경기도 성남시 분당구 황새울로319번길 8-6 (서현동)","name":"해마루동물병원","latitude":37.3857178,"longitude":127.1211026},"595":{"tel":"1566-4343","location":"경기도 안성시 죽산면 용설로 429-12","name":"양하무역산업동물병원(출장전문)","latitude":37.0471629,"longitude":127.4408656},"596":{"tel":"330-0075","location":"인천광역시 부평구 체육관로 40 (삼산동)","name":"삼산종합동물병원","latitude":37.5082776,"longitude":126.7361378},"597":{"tel":"1833-3339","location":"경기도 평택시 고덕중앙로 218, 우성메디컬센터  207~211호 (고덕동)","name":"24시 고덕동물의료센터","latitude":37.0479175,"longitude":127.044973},"598":{"tel":"463-3216","location":"서울특별시 광진구 능동로 283 (군자동)","name":"나래동물병원","latitude":37.555355,"longitude":127.0781666},"599":{"tel":"032-568-0922","location":"인천광역시 서구 청라루비로134번길 6-4 (경서동)","name":"청라 루비 동물병원","latitude":37.536749,"longitude":126.640949},"600":{"tel":"02-388-0275","location":"서울특별시 은평구 역말로 7 (역촌동)","name":"도담동물병원","latitude":37.6057369,"longitude":126.9111601},"601":{"tel":"031-563-7582","location":"경기도 구리시 동구릉로 120 (인창동)","name":"래플즈 동물병원","latitude":37.6098316,"longitude":127.1369833},"602":{"tel":"522-0222","location":"서울특별시 서초구 반포대로 45, 1층 (서초동, 명성빌딩)","name":"아델 동물병원","latitude":37.4845318,"longitude":127.0108206},"603":{"tel":"671-0175","location":"경기도 안성시 양성면 만세로 620","name":"좋은동물병원(출장전문)","latitude":37.0582656,"longitude":127.1947014},"604":{"tel":"031-898-4300","location":"경기도 용인시 수지구 포은대로 450 (풍덕천동)","name":"하임동물병원","latitude":37.3222769,"longitude":127.1002234},"605":{"tel":"02-387-8275","location":"서울특별시 은평구 진관2로 67, 202동 B층 01호 (진관동, 은평뉴타운우물골아파트)","name":"서울햇빛동물병원","latitude":37.6345887,"longitude":126.9245769},"606":{"tel":"02-2253-2233","location":"서울특별시 중구 난계로 197, 1,2,4층 (황학동)","name":"웰튼동물의료센터","latitude":37.5691248,"longitude":127.0232438},"607":{"tel":"323-2737","location":"경기도 부천시 도약로 31 (상동)","name":"다나동물병원","latitude":37.5126209,"longitude":126.7529699},"608":{"tel":"02-866-0880","location":"서울특별시 관악구 난곡로 247 (신림동)","name":"와우종합동물병원","latitude":37.4761277,"longitude":126.9157604},"609":{"tel":"452-7580","location":"서울특별시 광진구 천호대로 663 (구의동)","name":"아차산동물병원","latitude":37.5517973,"longitude":127.0902378},"610":{"tel":"2643-7882","location":"서울특별시 양천구 목동남로4길 6-11 (신정동)","name":"참사랑동물병원","latitude":37.5082194,"longitude":126.8651153},"611":{"tel":"031-248-0075","location":"경기도 수원시 팔달구 정조로 727, 1층 (중동)","name":"남문동물병원","latitude":37.2730609,"longitude":127.016229},"612":{"tel":"031-203-4727","location":"경기도 용인시 기흥구 서천서로12번길 4-8 (서천동)","name":"봄동물병원","latitude":37.2405322,"longitude":127.0739878},"613":{"tel":"031-651-8879","location":"경기도 평택시 비전2로 192 (비전동, 메가타워)","name":"타잔동물병원","latitude":37.000637,"longitude":127.1118544},"614":{"tel":"02-813-7579","location":"서울특별시 동작구 상도로 43, 1층 (대방동, 정원빌딩)","name":"피닉스동물병원","latitude":37.5000152,"longitude":126.9254758},"615":{"tel":"605-1275","location":"경기도 성남시 분당구 성남대로 884-9, 101호 (야탑동, 라비앙오피스텔)","name":"딜리동물병원","latitude":37.4091022,"longitude":127.1292525},"616":{"tel":"453-7582","location":"경기도 군포시 군포로 521-1 (당동)","name":"그랜드동물병원","latitude":37.3529537,"longitude":126.9452418},"617":{"tel":"795-2184","location":"서울특별시 용산구 대사관로 32 (한남동)","name":"펫토이동물병원","latitude":37.5335167,"longitude":127.0016999},"618":{"tel":"032-362-8111","location":"인천광역시 부평구 갈월동로 13, 1층 (갈산동)","name":"예동물병원","latitude":37.5083772,"longitude":126.7290857},"619":{"tel":"02-3142-7298","location":"서울특별시 마포구 월드컵로 46, 2층 (서교동)","name":"이층애 고양이동물병원","latitude":37.5533831,"longitude":126.9122406},"620":{"tel":"0317095500","location":"경기도 성남시 분당구 황새울로342번길 15, 은성빌딩 3층 301호 (서현동)","name":"반려동물암센터","latitude":37.3864398,"longitude":127.1239323},"621":{"tel":"733-1330","location":"경기도 성남시 중원구 산성대로420번길 3 (금광동)","name":"에코바이오","latitude":37.4493341,"longitude":127.1593703},"622":{"tel":"031-255-7975","location":"경기도 수원시 장안구 송원로86번길 4, 1,2층 (조원동)","name":"행복사랑동물병원","latitude":37.3021114,"longitude":127.010129},"623":{"tel":"031-676-7773","location":"경기도 안성시 일죽면 송천길 75-0","name":"건국 종합 가축병원 (출장전문병원)","latitude":37.0923495,"longitude":127.4758128},"624":{"tel":"0319661210","location":"경기도 고양시 덕양구 권율대로 690, 삼송2차원흥역동원로얄듀크비스타 202동 2층 1호 (원흥동)","name":"하이반려동물행동클리닉","latitude":37.6507803,"longitude":126.8753062},"625":{"tel":"032-819-2852","location":"인천광역시 연수구 먼우금로 189 (청학동, 소망글로벌)","name":"웰 동물병원","latitude":37.4146435,"longitude":126.6758695},"626":{"tel":"927-7585","location":"서울특별시 성북구 종암로 113 (종암동)","name":"쓰담쓰담 동물병원","latitude":37.6001609,"longitude":127.0336788},"627":{"tel":"417-7581","location":"경기도 안산시 단원구 광덕1로 159 (고잔동, 대림프라자 102호)","name":"꿈의동물병원","latitude":37.3081671,"longitude":126.82732},"628":{"tel":"933-6858","location":"인천광역시 강화군 강화읍 강화대로 365-4","name":"한마음","latitude":37.7432805,"longitude":126.4892525},"629":{"tel":"031-692-7114","location":"경기도 평택시 팽성읍 안정쇼핑로 3","name":"강남동물병원","latitude":36.9591506,"longitude":127.0433113},"630":{"tel":"031-8059-3797","location":"경기도 화성시 팔탄면 노하길 122","name":"수원화성오산축산농협 동물병원","latitude":37.1546587,"longitude":126.8477457},"631":{"tel":"906-7575","location":"서울특별시 도봉구 도봉로110다길 20 (창동)","name":"트윈스동물병원","latitude":37.6453583,"longitude":127.0337161},"632":{"tel":"032-815-8275","location":"인천광역시 연수구 송도과학로27번길 55, 상가 A동 216호 (송도동, 롯데캐슬캠퍼스타운)","name":"디오 동물병원","latitude":37.3880292,"longitude":126.6650679},"633":{"tel":"02-381-0507","location":"경기도 고양시 덕양구 신원로1길 42, 1층 (신원동)","name":"신원동물메디컬센터","latitude":37.6619527,"longitude":126.8881008},"634":{"tel":"2208-0329","location":"서울특별시 중랑구 망우로 315, 2층 (상봉동)","name":"닥터 아이펫 동물병원","latitude":37.5972337,"longitude":127.0874871},"635":{"tel":"031-575-9725","location":"경기도 남양주시 진접읍 해밀예당3로 167","name":"이리온 동물메디컬센터","latitude":37.7227184,"longitude":127.1919546},"636":{"tel":"031-269-9975","location":"경기도 수원시 장안구 파장로 109 (정자동)","name":"WE 동물병원","latitude":37.308227,"longitude":126.9896768},"637":{"tel":"031-852-7542","location":"경기도 의정부시 용현로 130 (민락동)","name":"민락동물병원","latitude":37.7409962,"longitude":127.0904123},"638":{"tel":"02-837-0837","location":"서울특별시 관악구 조원중앙로 3, 1층 (신림동)","name":"DS동물병원","latitude":37.4803511,"longitude":126.9040571},"639":{"tel":"031-566-5800","location":"경기도 구리시 장자대로 80, 2층 (수택동)","name":"토평동물병원","latitude":37.5872962,"longitude":127.1394211},"640":{"tel":"02-494-7775","location":"서울특별시 중랑구 용마산로 434 (면목동, 청파빌딩)","name":"보담동물병원","latitude":37.5899499,"longitude":127.0974124},"641":{"tel":"031-712-2795","location":"경기도 성남시 분당구 돌마로 364, 현대제일상가 21호 (수내동)","name":"금산헤르쯔 동물병원","latitude":37.3700065,"longitude":127.1236256},"642":{"tel":"0323437582","location":"경기도 부천시 양지로171번길 26 (옥길동)","name":"보우동물병원","latitude":37.4689036,"longitude":126.8219465},"643":{"tel":"467-8450","location":"인천광역시 남동구 담방로 52-1 (만수동)","name":"만수동물병원","latitude":37.4443172,"longitude":126.7390116},"644":{"tel":"2692-8255","location":"서울특별시 양천구 신월로 149 (신월동)","name":"파란종합 동물병원","latitude":37.5175571,"longitude":126.8402876},"645":{"tel":"911-7346","location":"경기도 고양시 일산서구 대산로 126 (주엽동)","name":"시민종합동물병원","latitude":37.6747636,"longitude":126.7637749},"646":{"tel":"032-833-7575","location":"인천광역시 연수구 비류대로 194, 1층 (옥련동)","name":"아프리카동물병원","latitude":37.4277467,"longitude":126.6563537},"647":{"tel":"3662-8661","location":"서울특별시 강서구 양천로 674, 9,10호 (염창동)","name":"서서울동물병원","latitude":37.5513418,"longitude":126.8711107},"648":{"tel":"031-443-8875,7560","location":"경기도 안양시 만안구 안양로 150 (안양동,신강빌딩 지상1층)","name":"경기중앙동물병원","latitude":37.3878369,"longitude":126.9309},"649":{"tel":"031-313-6109","location":"경기도 시흥시 수인로 3390, 지하1층 (신천동)","name":"서울동물병원","latitude":37.441782,"longitude":126.7824258},"650":{"tel":"552-3369","location":"인천광역시 계양구 계양대로 96 (작전동)","name":"신통방통 동물병원","latitude":37.5324173,"longitude":126.7229083},"651":{"tel":"433-0075","location":"인천광역시 남동구 남동대로 912 (간석동)","name":"주식회사 이십사시 독스동물병원","latitude":37.463791,"longitude":126.7084733},"652":{"tel":"03180086212","location":"경기도 평택시 진위면 동천길 132-93","name":"경기도 야생동물 구조관리센터","latitude":37.1319227,"longitude":127.1184401},"653":{"tel":"02-384-0075","location":"서울특별시 은평구 통일로 885 (갈현동)","name":"메디펫동물병원","latitude":37.6219963,"longitude":126.9195248},"654":{"tel":"494-5164","location":"경기도 안산시 단원구 화랑로 47 (원곡동)","name":"안산동물병원","latitude":37.3302646,"longitude":126.7965423},"655":{"tel":"024697975","location":"서울특별시 성동구 왕십리로 104, 영화빌딩 2층 (성수동1가)","name":"오늘동물병원","latitude":37.5468908,"longitude":127.0448481},"656":{"tel":"02-381-7963","location":"경기도 고양시 덕양구 동세로 63, 103호 (삼송동, 강남프라자)","name":"포근한동물병원","latitude":37.6482431,"longitude":126.8842346},"657":{"tel":"02-332-7984","location":"서울특별시 마포구 포은로 107, 2층 (망원동)","name":"서교동물병원","latitude":37.5565834,"longitude":126.9045582},"658":{"tel":"031-225-7533","location":"경기도 수원시 권선구 정조로 596 (세류동)","name":"두리동물병원","latitude":37.2619537,"longitude":127.0141789},"659":{"tel":"031-916-7509","location":"경기도 고양시 일산동구 무궁화로93번길 6-10 (정발산동)","name":"김 S 동물병원","latitude":37.6667449,"longitude":126.773666},"660":{"tel":"455-0077","location":"서울특별시 광진구 천호대로 642-1 (능동)","name":"애플동물병원","latitude":37.5531954,"longitude":127.0883177},"661":{"tel":"762-3575","location":"경기도 광주시 파발로151번길 4-2 (경안동)","name":"영주동물병원","latitude":37.4140656,"longitude":127.253591},"662":{"tel":"02-457-0075","location":"서울특별시 강동구 천호대로 1171, 지하1층,2층,3층 (길동)","name":"로얄동물메디컬센터 강동","latitude":37.5341585,"longitude":127.141401},"663":{"tel":"032-765-0112","location":"인천광역시 동구 솔빛로 2, 1층 (송현동)","name":"인천종합동물병원","latitude":37.4766095,"longitude":126.6336517},"664":{"tel":"031-595-7582","location":"경기도 남양주시 경춘로 925-1, 1층 (금곡동)","name":"어강동물병원","latitude":37.6332687,"longitude":127.2044269},"665":{"tel":"02-2295-0975","location":"서울특별시 성동구 마장로 137, 221동 134호 (상왕십리동, 텐즈힐몰)","name":"텐즈힐링동물병원","latitude":37.5693767,"longitude":127.0247058},"666":{"tel":"02-719-8275","location":"서울특별시 용산구 청파로47길 16, 지상1층 (청파동2가)","name":"원스동물병원","latitude":37.5449939,"longitude":126.9694925},"667":{"tel":"2651-8575","location":"서울특별시 양천구 목동중앙북로 37 (목동)","name":"미니주동물병원","latitude":37.5480476,"longitude":126.8678304},"668":{"tel":"773-1119","location":"서울특별시 용산구 후암로 32 (후암동)","name":"아프리카동물병원","latitude":37.5487129,"longitude":126.9779513},"669":{"tel":"02-2213-0075","location":"서울특별시 동대문구 장한로 44, 1층 (장안동)","name":"아인스동물병원","latitude":37.5650741,"longitude":127.0674125},"670":{"tel":"455-7570","location":"서울특별시 광진구 광나루로 601 (광장동)","name":"쥬라기동물병원","latitude":37.5421019,"longitude":127.0952248},"671":{"tel":"2692-9290","location":"서울특별시 강서구 까치산로 74 (화곡동)","name":"시온동물병원","latitude":37.5452425,"longitude":126.8473171},"672":{"tel":"031-8042-7585","location":"경기도 안산시 단원구 고잔로 88, 207-209호 (고잔동)","name":"참동물의료센터","latitude":37.318755,"longitude":126.8360401},"673":{"tel":"3491-7060","location":"서울특별시 도봉구 도당로 63 (방학동)","name":"화신종합동물병원","latitude":37.6638042,"longitude":127.034672},"674":{"tel":"409-7533","location":"서울특별시 송파구 오금로 422, 연암빌딩 1층 (가락동)","name":"에버펫 동물병원","latitude":37.4967466,"longitude":127.1367811},"675":{"tel":"031-987-0411","location":"경기도 김포시 통진읍 김포대로 2248, 1층 101호","name":"천풍동물병원","latitude":37.6905337,"longitude":126.5966604},"676":{"tel":"031-351-5738","location":"경기도 화성시 장안면 남양황라로 539-20","name":"누리팜 산업동물병원","latitude":37.0324229,"longitude":126.8530696},"677":{"tel":"705-7511","location":"경기도 성남시 분당구 동판교로52번길 6, 외 1필지(분당구 동판교로52번길 8) 1층 (백현동)","name":"백현 동물병원","latitude":37.3875033,"longitude":127.1142285},"678":{"tel":"975-1475","location":"경기도 고양시 일산서구 고양대로 688, 201호 (일산동)","name":"이용철동물병원","latitude":37.6836923,"longitude":126.7723637},"679":{"tel":"554-8575","location":"경기도 남양주시 경춘로 404 (도농동)","name":"나루동물병원","latitude":37.6065002,"longitude":127.1590897},"680":{"tel":"031-892-7775","location":"경기도 용인시 수지구 성복1로 106, 107호 (성복동, 벽산프라자)","name":"해담은동물병원","latitude":37.3167476,"longitude":127.0682861},"681":{"tel":"591-5991","location":"경기도 남양주시 화도읍 창현로 53","name":"창현동물병원","latitude":37.6459127,"longitude":127.3051579},"682":{"tel":"02-2088-1375","location":"서울특별시 마포구 백범로 130 (염리동)","name":"아이웰 동물의료센터","latitude":37.5461482,"longitude":126.9451172},"683":{"tel":"02-433-7515","location":"서울특별시 중랑구 신내로 66 (신내동)","name":"아이봄 동물병원","latitude":37.6050551,"longitude":127.0956421},"684":{"tel":"02-476-3927","location":"서울특별시 강동구 양재대로 1299, 1층 (성내동)","name":"방주동물의료센터","latitude":37.5224416,"longitude":127.1336287},"685":{"tel":"915-7582","location":"서울특별시 성북구 돌곶이로 91 (장위동)","name":"행복한동물병원","latitude":37.6111873,"longitude":127.0563686},"686":{"tel":"02-874-7585","location":"서울특별시 관악구 관악로 223 (봉천동)","name":"프렌즈동물병원","latitude":37.4848557,"longitude":126.955134},"687":{"tel":"384-7743","location":"서울특별시 은평구 연서로 185 (갈현동)","name":"금쪽같은내새끼 동물병원","latitude":37.6153748,"longitude":126.9178371},"688":{"tel":"032-528-1359","location":"인천광역시 부평구 부평대로 132, 1층 102호 (부평동, 헤리움노블레스)","name":"백마동물병원","latitude":37.5032551,"longitude":126.7220278},"689":{"tel":"577-6125","location":"서울특별시 서초구 매헌로 16, 지하1층 (양재동, 이마트 양재점)","name":"이리온 양재점","latitude":37.4634041,"longitude":127.0370146},"690":{"tel":"031-443-1280","location":"경기도 안양시 만안구 박달로 512 (박달동)","name":"바우동물병원","latitude":37.4024279,"longitude":126.9095392},"691":{"tel":"555-7756,","location":"인천광역시 계양구 동양로 115 (동양동)","name":"한스동물병원","latitude":37.5590702,"longitude":126.757698},"692":{"tel":"933-9765","location":"인천광역시 강화군 강화읍 남문로 30","name":"바울 동물병원","latitude":37.7405816,"longitude":126.4886042},"693":{"tel":"521-7573","location":"경기도 남양주시 와부읍 덕소로 218","name":"해피동물병원","latitude":37.5794859,"longitude":127.2204321},"694":{"tel":"484-0075","location":"서울특별시 강동구 천호대로 1199, 1층 104호 (길동)","name":"길종합동물병원","latitude":37.5351305,"longitude":127.1441646},"695":{"tel":"866-5725","location":"인천광역시 미추홀구 인주대로 168 (용현동)","name":"온누리동물병원","latitude":37.4557657,"longitude":126.655589},"696":{"tel":"438-3227","location":"인천광역시 남동구 소래역남로16번길 75 (논현동)","name":"24시 소래동물병원","latitude":37.3998718,"longitude":126.7329593},"697":{"tel":"02-3486-7707","location":"서울특별시 동작구 남부순환로267길 5 (사당동,102호)","name":"세인트필립 동물병원","latitude":37.477136,"longitude":126.9767084},"698":{"tel":"582-2357","location":"서울특별시 서초구 효령로57길 4 (서초동)","name":"서초동물병원","latitude":37.4854678,"longitude":127.0170534},"699":{"tel":"662-4805","location":"경기도 평택시 탄현로 310-1 (지산동)","name":"심재훈동물병원","latitude":37.0800852,"longitude":127.0552616},"700":{"tel":"032-821-8275","location":"인천광역시 연수구 함박로 74-1(연수동)","name":"신퍼피클럽 동물병원","latitude":37.4252936,"longitude":126.6854685},"701":{"tel":"02-6956-7599","location":"서울특별시 은평구 불광로 59, 1층 나호 (불광동)","name":"동물병원 움","latitude":37.6123703,"longitude":126.9317169},"702":{"tel":"741-8119","location":"경기도 성남시 중원구 희망로 442 (금광동)","name":"서울동물병원","latitude":37.4444381,"longitude":127.1577805},"703":{"tel":"433-7582","location":"인천광역시 남동구 남동대로 757, 2층 (구월동)","name":"웰동물메디컬센터","latitude":37.4502583,"longitude":126.7071102},"704":{"tel":"031-795-0903","location":"경기도 하남시 신평로 168 (신장동)","name":"강남애니동물메디컬센터","latitude":37.5471381,"longitude":127.2114662},"705":{"tel":"031-754-0201","location":"경기도 성남시 중원구 성남대로997번길 51-16, 1층 (여수동)","name":"분당밝은아이동물병원","latitude":37.4170855,"longitude":127.1259717},"706":{"tel":"031-773-8275","location":"경기도 양평군 양평읍 중앙로 49","name":"동물병원 산책","latitude":37.4960979,"longitude":127.4948061},"707":{"tel":"031-373-0775","location":"경기도 오산시 성호대로 26, 1층 (오산동)","name":"장수동물의료원","latitude":37.1492107,"longitude":127.064},"708":{"tel":"833-7554","location":"서울특별시 영등포구 여의대방로 11 (신길동)","name":"유석동물병원","latitude":37.4934797,"longitude":126.9098281},"709":{"tel":"032-508-7571","location":"인천광역시 부평구 굴포로 42 (갈산동)","name":"서울종합동물병원","latitude":37.5116226,"longitude":126.7257815},"710":{"tel":"02-566-5852","location":"서울특별시 강남구 역삼로 138, 동광빌딩 1층 (역삼동)","name":"하나카동물병원","latitude":37.4942311,"longitude":127.0347215},"711":{"tel":"443-8973","location":"서울특별시 송파구 동남로 318 (오금동)","name":"김민재동물병원","latitude":37.5036919,"longitude":127.1386997},"712":{"tel":"02-448-7588","location":"서울특별시 송파구 새말로5길 17 (문정동)","name":"송파스마일동물병원","latitude":37.4841686,"longitude":127.1239727},"713":{"tel":"02-3395-7975","location":"서울특별시 성동구 고산자로 207 (행당동)","name":"24시센트럴동물메디컬센터","latitude":37.5586939,"longitude":127.0336989},"714":{"tel":"463-9066","location":"인천광역시 남동구 백범로 260 (간석동)","name":"세우리동물병원","latitude":37.4611237,"longitude":126.7205705},"715":{"tel":"726-7582","location":"경기도 성남시 분당구 운중로243번길 3-6, 1층 (판교동)","name":"이진수고양이병원","latitude":37.3901377,"longitude":127.0898434},"716":{"tel":"02-932-6658","location":"서울특별시 노원구 동일로 1649 (상계동, 윤일빌딩)","name":"은빛동물병원","latitude":37.6773823,"longitude":127.053155},"717":{"tel":"2615-5014","location":"서울특별시 구로구 고척로 157 (고척동)","name":"개봉동물병원","latitude":37.5034333,"longitude":126.8511297},"718":{"tel":"382-3243","location":"서울특별시 은평구 서오릉로 140 (대조동)","name":"더독동물병원","latitude":37.611379,"longitude":126.9176229},"719":{"tel":"02-323-8275","location":"서울특별시 마포구 월드컵로 46 (서교동)","name":"로얄동물메디컬센터w","latitude":37.5533831,"longitude":126.9122406},"720":{"tel":"02-2291-8275","location":"서울특별시 성동구 마장로 296 (마장동)","name":"기린동물병원","latitude":37.5657023,"longitude":127.042794},"721":{"tel":"031-535-9533","location":"경기도 포천시 영중면 호국로 3042, 다동 104호","name":"팜스플랜동물병원 경기북부센터","latitude":38.0141574,"longitude":127.2476703},"722":{"tel":"939-6898","location":"서울특별시 노원구 한글비석로52길 18 (상계동)","name":"이앤박동물병원","latitude":37.6645625,"longitude":127.0638362},"723":{"tel":"031-310-6943","location":"경기도 시흥시 뒷방울길 218(정왕동)","name":"시흥시동물누리보호센터 동물병원","latitude":37.3743297,"longitude":126.7428998},"724":{"tel":"2263-6134","location":"서울특별시 중구 퇴계로 227 (충무로4가)","name":"대한동물병원","latitude":37.5620689,"longitude":126.9968927},"725":{"tel":"392-8850","location":"경기도 군포시 산본로 394, 1동 108,109호 (산본동, 대림프라자)","name":"제일동물병원","latitude":37.3652655,"longitude":126.9296396},"726":{"tel":"031-952-7576","location":"경기도 파주시 문산읍 방촌로 1692","name":"로뎀동물병원","latitude":37.8641134,"longitude":126.7829651},"727":{"tel":"031-211-7550","location":"경기도 수원시 영통구 센트럴파크로127번길 32, 지하,1층 (이의동)","name":"카페거리 동물병원 동행","latitude":37.2950365,"longitude":127.0545618},"728":{"tel":"02-743-7582","location":"서울특별시 성북구 성북로 27 (성북동1가)","name":"한사랑동물병원","latitude":37.5903631,"longitude":127.0038573},"729":{"tel":"031-284-9200","location":"경기도 용인시 기흥구 어정로 134-12 (중동)","name":"어정동물병원","latitude":37.274883,"longitude":127.1454419},"730":{"tel":"5657553","location":"경기도 남양주시 다산순환로 350, KB 골든타워 1층 110호 (다산동)","name":"다산마리동물병원","latitude":37.625776,"longitude":127.155378},"731":{"tel":"031-455-7588","location":"경기도 안양시 동안구 경수대로 428 (호계동, 덕유파크 123호, 215호)","name":"동주동물병원","latitude":37.3622781,"longitude":126.9625115},"732":{"tel":"908-5857","location":"경기도 고양시 일산동구 일산로 233 (마두동)","name":"다니엘 동물병원","latitude":37.6568332,"longitude":126.7882753},"733":{"tel":"02-442-8287","location":"서울특별시 강동구 올림픽로 820, 1층 (암사동, 서연빌딩)","name":"마리스동물의료센터","latitude":37.5540697,"longitude":127.1292637},"734":{"tel":"332-4179","location":"경기도 용인시 처인구 백암면 백암로201번길 24","name":"제일동물병원","latitude":37.1652149,"longitude":127.3726152},"735":{"tel":"031-426-0075","location":"경기도 안양시 동안구 흥안대로 495, 1층 (관양동)","name":"인덕원종합동물병원","latitude":37.3982812,"longitude":126.9764559},"736":{"tel":"031-8055-8075","location":"경기도 화성시 동탄순환대로 253, 203호 (산척동)","name":"이로운 동물병원","latitude":37.169963,"longitude":127.1182914},"737":{"tel":"031-986-9975","location":"경기도 김포시 풍무로 85, 1동 4층 (풍무동)","name":"홈종합동물병원","latitude":37.6032738,"longitude":126.7213695},"738":{"tel":"665-0046","location":"경기도 평택시 탄현로 276 (지산동)","name":"안창선동물병원","latitude":37.077078,"longitude":127.0555613},"739":{"tel":"541-9488","location":"경기도 포천시 소흘읍 송우로 87","name":"현대동물병원","latitude":37.8302424,"longitude":127.1393191},"740":{"tel":"031-941-2422","location":"경기도 파주시 새꽃로 62, 베스트프라자 1층 112호 (금촌동)","name":"고려동물병원","latitude":37.7554803,"longitude":126.7689637},"741":{"tel":"031-953-7570","location":"경기도 파주시 문산읍 문향로 35","name":"문산동물병원","latitude":37.8550294,"longitude":126.7856214},"742":{"tel":"031-875-7553","location":"경기도 의정부시 평화로 205, 1층 (호원동)","name":"다빈치동물병원","latitude":37.7102801,"longitude":127.0476081},"743":{"tel":"549-2626","location":"인천광역시 계양구 계양대로 134, 2층 (작전동)","name":"계산동물병원","latitude":37.5357977,"longitude":126.7229149},"744":{"tel":"655-6941","location":"경기도 평택시 평택로 69 (평택동)","name":"PET25시동물병원","latitude":36.9930519,"longitude":127.0852355},"745":{"tel":"031-962-8274","location":"경기도 고양시 덕양구 통일로 1128 (내유동)","name":"펫앤유 24시 동물병원","latitude":37.7150499,"longitude":126.8514416},"746":{"tel":"031-347-0546","location":"경기도 안양시 만안구 안양로 150, 지층 (안양동)","name":"JA 임상병리 동물병원","latitude":37.3878369,"longitude":126.9309},"747":{"tel":"02-381-9658","location":"경기도 고양시 덕양구 삼송로205번길 15 (삼송동)","name":"삼송동물의료센터","latitude":37.6544781,"longitude":126.896134},"748":{"tel":"032-505-7262","location":"인천광역시 부평구 경인로 1069, 1층 (부개동)","name":"주주종합동물병원","latitude":37.4868686,"longitude":126.738928},"749":{"tel":"3676-1190","location":"서울특별시 종로구 지봉로 96-3 (숭인동)","name":"우리동물병원","latitude":37.5787079,"longitude":127.0156547},"750":{"tel":"2608-0234","location":"서울특별시 강서구 강서로 45 (화곡동, 미래동물병원)","name":"미래동물병원","latitude":37.5305434,"longitude":126.8411615},"751":{"tel":"031-795-7590","location":"경기도 하남시 미사강변한강로158번길 56, 1층 102호 (망월동)","name":"미사마이펫","latitude":37.5752041,"longitude":127.1895836},"752":{"tel":"031-314-7975","location":"경기도 시흥시 비둘기공원로 21 (대야동)","name":"이지 동물병원","latitude":37.4439714,"longitude":126.7922617},"753":{"tel":"031-967-8275","location":"경기도 고양시 덕양구 은빛로 45, 화정꽃무리조합프라자 202호 (화정동)","name":"센트럴동물병원","latitude":37.6381351,"longitude":126.8329092},"754":{"tel":"031-254-7518","location":"경기도 수원시 장안구 수성로350번길 4 (영화동)","name":"귀족동물병원","latitude":37.2927804,"longitude":127.0102549},"755":{"tel":"070-7796-0333","location":"경기도 파주시 꽃창포길 16 (문발동)","name":"Dr.Mini 하늘다람쥐 전문병원","latitude":37.7189724,"longitude":126.707892},"756":{"tel":"031-508-0555","location":"경기도 시흥시 군자로 511 (거모동)","name":"굿모닝동물병원","latitude":37.3444767,"longitude":126.7852974},"757":{"tel":"413-8275","location":"경기도 안산시 상록구 예술광장1로 94, 1층동 102호 (성포동,정인프라자)","name":"고대영동물병원","latitude":37.3264696,"longitude":126.8470436},"758":{"tel":"924-4555","location":"서울특별시 성북구 종암로 65 (종암동)","name":"강북동물병원","latitude":37.5962074,"longitude":127.0351839},"759":{"tel":"934-2570","location":"인천광역시 강화군 강화읍 강화대로 378","name":"종합","latitude":37.7446084,"longitude":126.4887914},"760":{"tel":"031-945-5365","location":"경기도 파주시 책향기로 573, 2층 206호 (목동동, 월드타워3)","name":"파주365동물의료센터","latitude":37.7277707,"longitude":126.7343829},"761":{"tel":"718-0365","location":"경기도 성남시 분당구 미금일로90번길 32, 125호 (구미동)","name":"365동물병원 분당점","latitude":37.3489422,"longitude":127.1104602},"762":{"tel":"542-9482","location":"경기도 포천시 소흘읍 호국로 571, 정우빌딩","name":"해피올동물병원","latitude":37.8230528,"longitude":127.1402167},"763":{"tel":"3422-0001","location":"서울특별시 중랑구 봉화산로 103, 1층 (중화동, 삼일시티빌)","name":"신내동물병원","latitude":37.6027222,"longitude":127.0857378},"764":{"tel":"02-2061-5277","location":"서울특별시 양천구 신월로 320 (신정동)","name":"밀리언동물병원","latitude":37.5213172,"longitude":126.8564652},"765":{"tel":"031-233-2836","location":"경기도 용인시 기흥구 신갈로 85 (신갈동)","name":"(주)에니멀클리닉컨설팅(출장진료전문병원)","latitude":37.2743083,"longitude":127.1054807},"766":{"tel":"02-546-9539","location":"서울특별시 강남구 논현로132길 24, 양현빌딩 2층\/5층 (논현동)","name":"최영민 동물의료센터","latitude":37.5151619,"longitude":127.0323995},"767":{"tel":"456-0975","location":"서울특별시 광진구 뚝섬로52길 4 (자양동)","name":"자양동물병원","latitude":37.5317986,"longitude":127.0793598},"768":{"tel":"02-837-8875","location":"서울특별시 관악구 남부순환로 1429 (신림동)","name":"러브펫종합동물병원","latitude":37.4811932,"longitude":126.9095717},"769":{"tel":"875-1476","location":"경기도 의정부시 가능로 37 (가능동)","name":"가능동물병원","latitude":37.7467437,"longitude":127.0350726},"770":{"tel":"933-2729","location":"인천광역시 강화군 강화읍 충렬사로 6, 2층 202호","name":"서울동물","latitude":37.7432805,"longitude":126.4892525},"771":{"tel":"031-656-5975","location":"경기도 안성시 공도읍 진사길 8","name":"아프리카동물병원","latitude":36.9932062,"longitude":127.1378042},"772":{"tel":"031-544-0275","location":"경기도 포천시 소흘읍 솔모루로 118","name":"사랑종합동물병원","latitude":37.8313406,"longitude":127.149577},"773":{"tel":"031-283-1357","location":"경기도 용인시 기흥구 용구대로 2457 (보정동)","name":"Wellness clinic 동물병원","latitude":37.3054615,"longitude":127.105391},"774":{"tel":"2636-3992","location":"서울특별시 구로구 경인로 661, 신도림1차푸르지오 101동 139호 (신도림동)","name":"신도림동물병원","latitude":37.5094416,"longitude":126.8877732},"775":{"tel":"710-1237","location":"인천광역시 남동구 백범로 232, 1,2층 (만수동)","name":"루이스24시동물병원","latitude":37.4607023,"longitude":126.723702},"776":{"tel":"423-0975","location":"인천광역시 남동구 소래역남로16번길 75,  B103-2호 (논현동)","name":"논현동물병원","latitude":37.3998718,"longitude":126.7329593},"777":{"tel":"02-555-6835","location":"서울특별시 강남구 역삼로 459, 한상빌딩 1층 (대치동)","name":"원동물병원","latitude":37.5028807,"longitude":127.0573462},"778":{"tel":"8017-9975","location":"경기도 성남시 분당구 운중로 124, 204호 (운중동, 마크시티 블루)","name":"프라임동물병원","latitude":37.3913446,"longitude":127.0769507},"779":{"tel":"032-811-7553","location":"인천광역시 연수구 용담로 145 (연수동)","name":"따뜻한 동물병원","latitude":37.413256,"longitude":126.6803273},"780":{"tel":"805-4758","location":"서울특별시 금천구 금하로 745 (시흥동)","name":"노아동물병원","latitude":37.4502228,"longitude":126.9125715},"781":{"tel":"031-778-8738","location":"경기도 성남시 수정구 위례동로 147, 106호 (창곡동, 위례건아타워)","name":"위례나무동물병원","latitude":37.4726926,"longitude":127.1501055},"782":{"tel":"031-668-9935","location":"경기도 평택시 고덕면 동청1길 35","name":"보람동물병원","latitude":37.0550127,"longitude":127.0064868},"783":{"tel":"3446-8253","location":"서울특별시 강남구 학동로6길 7 (논현동)","name":"와이즈24시 동물병원","latitude":37.5112861,"longitude":127.0238936},"784":{"tel":"031-634-6611","location":"경기도 이천시 남천로 76 (중리동)","name":"이천축산업협동조합동물병원","latitude":37.2766422,"longitude":127.4457971},"785":{"tel":"02-582-7708","location":"서울특별시 동작구 사당로 252 (사당동)","name":"동물은내친구","latitude":37.4831247,"longitude":126.9758193},"786":{"tel":"031-949-1275","location":"경기도 파주시 와석순환로 431, 105호 (와동동, 신운정프라자)","name":"행복플러스동물병원","latitude":37.7236493,"longitude":126.7531441},"787":{"tel":"637-2543","location":"경기도 이천시 중리천로 99 (창전동)","name":"하나","latitude":37.2781699,"longitude":127.4480564},"788":{"tel":"02-302-7502","location":"서울특별시 마포구 월드컵북로 224, 청화상가 104호 (성산동)","name":"행복한 동물병원","latitude":37.5698186,"longitude":126.9044549},"789":{"tel":"591-7270","location":"경기도 남양주시 금곡로 44, 성원빌딩 (금곡동)","name":"대관령동물병원","latitude":37.6339134,"longitude":127.2079314},"790":{"tel":"303-1114","location":"서울특별시 서대문구 증가로 111 (남가좌동)","name":"한스동물병원","latitude":37.5766621,"longitude":126.9248529},"791":{"tel":"929-1212","location":"서울특별시 성북구 종암로 91(종암동)","name":"미소동물병원","latitude":37.5983955,"longitude":127.0343699},"792":{"tel":"711-4527","location":"서울특별시 용산구 백범로 293 (효창동)","name":"효창동물병원","latitude":37.5393175,"longitude":126.9619013},"793":{"tel":"594-3119","location":"경기도 남양주시 화도읍 마석중앙로 70","name":"25시동물병원","latitude":37.6521571,"longitude":127.3074361},"794":{"tel":"766-6833","location":"인천광역시 동구 동산로 78 (송림동)","name":"동산동물병원","latitude":37.4744645,"longitude":126.6461526},"795":{"tel":"02-2693-0075","location":"서울특별시 강서구 화곡로 112, 1층 (화곡동)","name":"파스텔동물병원","latitude":37.5397929,"longitude":126.8344464},"796":{"tel":"494-1119","location":"경기도 안산시 단원구 원선로 57 (원곡동)","name":"삼성동물병원","latitude":37.3298215,"longitude":126.7986321},"797":{"tel":"032-822-7588","location":"인천광역시 연수구 먼우금로 88, 105호 (동춘동, 상산빌딩)","name":"드림동물병원","latitude":37.4067333,"longitude":126.6703554},"798":{"tel":"761-6560","location":"인천광역시 중구 우현로90번길 27, 1층 (용동)","name":"한양한방동물병원","latitude":37.4734529,"longitude":126.6310743},"799":{"tel":"031-261-7582","location":"경기도 용인시 수지구 신봉1로 84, 228,229호 (신봉동, 상록신봉종합상가)","name":"서울샤인동물병원","latitude":37.3237588,"longitude":127.0764614},"800":{"tel":"031-385-7676","location":"경기도 안양시 동안구 경수대로 707, 1층 (호계동)","name":"안양펫동물병원","latitude":37.3847378,"longitude":126.9511577},"801":{"tel":"032)434-7525","location":"인천광역시 남동구 백범로 457, 105~107호 (간석동,성우네오빌)","name":"D&C동물병원","latitude":37.4678982,"longitude":126.7001798},"802":{"tel":"841-0075","location":"서울특별시 영등포구 영등포로76길 1 (신길동)","name":"참 동물병원","latitude":37.5136464,"longitude":126.9198582},"803":{"tel":"2666-7990","location":"서울특별시 강서구 마곡서로 133, 712동 102-1호 (마곡동, 마곡엠밸리7단지)","name":"참동물병원","latitude":37.5653882,"longitude":126.8234589},"804":{"tel":"307-4633","location":"서울특별시 서대문구 응암로 77 (북가좌동)","name":"가좌동물병원","latitude":37.580035,"longitude":126.9111676},"805":{"tel":"031-264-7553","location":"경기도 용인시 수지구 용구대로 2794 (죽전동)","name":"초이스동물병원","latitude":37.335206,"longitude":127.1093802},"806":{"tel":"031-996-7975","location":"경기도 김포시 초당로16번길 75 (장기동)","name":"하나로 양한방 동물병원","latitude":37.6399226,"longitude":126.6751831},"807":{"tel":"332-3070","location":"경기도 용인시 처인구 명지로 17 (역북동)","name":"용인동물병원","latitude":37.2344617,"longitude":127.1890853},"808":{"tel":"02-2299-3283","location":"서울특별시 성동구 독서당로 200 (옥수동)","name":"함께하는동물병원","latitude":37.543031,"longitude":127.0131345},"809":{"tel":"2065-7582","location":"서울특별시 강서구 가로공원로 198, 1층 (화곡동, 청파빌딩)","name":"올스타동물의료센터","latitude":37.5369952,"longitude":126.8379158},"810":{"tel":"403-1604","location":"경기도 안산시 단원구 광덕1로 63, 1층 109호 (초지동, 메디프라자)","name":"한국동물병원","latitude":37.3087749,"longitude":126.8167113},"811":{"tel":"723-7508","location":"경기도 성남시 수정구 태평로 10 (태평동)","name":"시드니동물병원","latitude":37.447836,"longitude":127.1280329},"812":{"tel":"439-7582","location":"서울특별시 중랑구 상봉로 17, 1층 (면목동)","name":"닥터멍동물병원","latitude":37.5875009,"longitude":127.0941347},"813":{"tel":"031-266-8898","location":"경기도 용인시 수지구 만현로 95, B102호 (상현동, 수지3차쌍용스윗닷홈상가)","name":"애니펫동물병원","latitude":37.3073034,"longitude":127.0872121},"814":{"tel":"02-326-0275","location":"서울특별시 마포구 포은로 64 (망원동)","name":"박효리군 동물병원","latitude":37.5529003,"longitude":126.9065518},"815":{"tel":"031-656-8575","location":"경기도 평택시 평택5로114번길 54 (비전동)","name":"펫필드동물병원","latitude":36.9949278,"longitude":127.1123985},"816":{"tel":"02-812-7512","location":"서울특별시 동작구 상도로 353, 1층 (상도동)","name":"상도힐링동물병원","latitude":37.497288,"longitude":126.9532063},"817":{"tel":"031-711-2244","location":"경기도 성남시 분당구 내정로 170, 동신파크빌딩 204호 (수내동)","name":"서공동물병원","latitude":37.3734676,"longitude":127.1196244},"818":{"tel":"467-1275","location":"인천광역시 남동구 구월로 317 (만수동)","name":"길동물병원","latitude":37.4556941,"longitude":126.7259612},"819":{"tel":"031-488-8075","location":"경기도 시흥시 정왕대로 230, 1층 107호 (정왕동, 제일프라자)","name":"24시위드동물병원(정왕동동물의료센터)","latitude":37.3449606,"longitude":126.7384776},"820":{"tel":"717-7577","location":"경기도 성남시 분당구 내정로173번길 11, 603동 139호 (수내동, 양지마을한양아파트)","name":"남현우동물병원","latitude":37.3747978,"longitude":127.1184232},"821":{"tel":"439-0039","location":"인천광역시 남동구 문화로 65 (구월동)","name":"동물의왕국 동물병원","latitude":37.4449147,"longitude":126.6987413},"822":{"tel":"031-747-0406","location":"경기도 성남시 중원구 희망로 402, 지하1층 (금광동)","name":"해오름동물병원","latitude":37.4412887,"longitude":127.1601751},"823":{"tel":"031-381-8275","location":"경기도 안양시 동안구 관악대로 317-4, 1층 (관양동)","name":"디아나동물병원","latitude":37.4036964,"longitude":126.9580128},"824":{"tel":"031-423-4033","location":"경기도 의왕시 포일로 59, 호성상가 1층 3,4호 (포일동)","name":"늘솜동물병원","latitude":37.390579,"longitude":126.9791749},"825":{"tel":"031-8003-7596","location":"경기도 화성시 외삼미로 166 (반송동)","name":"퍼스트동물병원","latitude":37.1994686,"longitude":127.0617344},"826":{"tel":"551-0975,","location":"인천광역시 계양구 계양대로34번길 6, 101호 (작전동)","name":"자연동물병원","latitude":37.5267223,"longitude":126.7231811},"827":{"tel":"041-580-3409","location":"경기도 평택시 팽성읍 노와2길 48-16","name":"국립축산과학원 축산자원개발부 동물병원","latitude":36.9479224,"longitude":127.0963428},"828":{"tel":"0319867119","location":"경기도 김포시 사우중로 89, 1층 (북변동, 명승프라자)","name":"수호 동물병원","latitude":37.6226861,"longitude":126.7211374},"829":{"tel":"031-269-1121","location":"경기도 수원시 장안구 하률로 9 (천천동)","name":"소담동물병원","latitude":37.3031789,"longitude":126.9743102},"830":{"tel":"225-2513","location":"경기도 화성시 경기대로 1054 (진안동)","name":"위니펫동물병원","latitude":37.2094533,"longitude":127.0340544},"831":{"tel":"592-8875","location":"경기도 남양주시 경춘로 1281 (평내동)","name":"남양주동물병원","latitude":37.6488861,"longitude":127.2353738},"832":{"tel":"3473-8274","location":"서울특별시 서초구 서초대로 108, 2층 (방배동)","name":"내방동물병원","latitude":37.487472,"longitude":126.9941435},"833":{"tel":"853-7582","location":"서울특별시 금천구 남부순환로 1386 (독산동)","name":"우리동물메디컬센터","latitude":37.4797401,"longitude":126.904729},"834":{"tel":"02-466-2475","location":"서울특별시 성동구 뚝섬로 386 (성수동2가)","name":"서울숲동물병원","latitude":37.5390963,"longitude":127.0532651},"835":{"tel":"032-437-7588","location":"인천광역시 미추홀구 미추홀대로 594, 동경프라자 1층 (주안동)","name":"시드니종합동물병원","latitude":37.4505569,"longitude":126.6801278},"836":{"tel":"031-871-7588","location":"경기도 의정부시 태평로 52 (의정부동)","name":"의정부 24시 IU 동물병원","latitude":37.737029,"longitude":127.0516475},"837":{"tel":"544-0075","location":"인천광역시 계양구 장제로694번길 3 (작전동)","name":"작전 동물병원","latitude":37.5298174,"longitude":126.7340115},"838":{"tel":"407-0075","location":"경기도 안산시 상록구 건건로 117, 101,102호 (건건동)","name":"반월동물병원","latitude":37.3113126,"longitude":126.9046472},"839":{"tel":"031-985-5075","location":"경기도 김포시 김포대로802번길 8 (사우동)","name":"이레동물병원","latitude":37.6182001,"longitude":126.7243174},"840":{"tel":"735-5995","location":"경기도 성남시 중원구 산성대로 336-3 (중앙동)","name":"세이브 동물병원","latitude":37.4430646,"longitude":127.1539036},"841":{"tel":"2655-2258","location":"서울특별시 양천구 공항대로 636 (목동)","name":"행복한동물병원","latitude":37.5467042,"longitude":126.8753944},"842":{"tel":"02-6951-4327","location":"서울특별시 강남구 압구정로29길 68, 2층 203호 (압구정동, 현대아파트)","name":"봄사랑 동물병원","latitude":37.531982,"longitude":127.0285832},"843":{"tel":"3472-8275","location":"서울특별시 서초구 사임당로 139, 104호 (서초동)","name":"서이동물병원","latitude":37.4917723,"longitude":127.0248748},"844":{"tel":"634-0052","location":"경기도 이천시 영창로 246 (창전동)","name":"우리동물병원","latitude":37.280444,"longitude":127.4498683},"845":{"tel":"032-524-5557","location":"인천광역시 부평구 경원대로 1278, 101호 (부평동)","name":"부평 모모 동물병원","latitude":37.4901523,"longitude":126.7111018},"846":{"tel":"02-333-7750","location":"서울특별시 서대문구 연희로 178, 1층 (연희동)","name":"헬로우 동물병원","latitude":37.5727933,"longitude":126.9357612},"847":{"tel":"6348-1982","location":"서울특별시 양천구 목동중앙서로 42, 1층 (목동)","name":"팜랜드동물병원","latitude":37.5328275,"longitude":126.8684925},"848":{"tel":"031-684-8779","location":"경기도 평택시 청북읍 안청로2길 33-2, 105,106호","name":"청북 햇살동물병원","latitude":37.0184715,"longitude":126.9178501},"849":{"tel":"435-2275","location":"서울특별시 중랑구 면목로 442-1, 1층 (면목동)","name":"하스펫탈동물병원","latitude":37.5915799,"longitude":127.0869736},"850":{"tel":"031-798-7581","location":"경기도 광주시 경안천로 142(송정동)","name":"광주TNR동물병원(송정)","latitude":37.4173338,"longitude":127.2750257},"851":{"tel":"02-540-6303","location":"서울특별시 강남구 압구정로 332 (신사동, 1층,2층)","name":"압구정메이트동물병원","latitude":37.5282088,"longitude":127.0378383},"852":{"tel":"484-8414","location":"서울특별시 강동구 구천면로 237 (천호동)","name":"세종동물병원","latitude":37.5417601,"longitude":127.1304316},"853":{"tel":"02-446-8175","location":"서울특별시 광진구 광나루로56길 32, 105,106,201호 (구의동, 구의현대2단지아파트)","name":"광진24시필동물병원","latitude":37.538632,"longitude":127.0958857},"854":{"tel":"031-217-9559","location":"경기도 수원시 영통구 센트럴파크로127번길 166(이의동)","name":"봄나래동물병원","latitude":37.2946397,"longitude":127.0560288},"855":{"tel":"8072-8273","location":"경기도 하남시 미사대로 750, G243호 (신장동, 스타필드하남)","name":"위즈펫 동물병원","latitude":37.5454832,"longitude":127.2237108},"856":{"tel":"031-733-9325","location":"경기도 성남시 중원구 산성대로 498, 1층 102호 (은행동)","name":"동물병원 Dr.정","latitude":37.4555557,"longitude":127.1625911},"857":{"tel":"031-546-0942","location":"경기도 용인시 기흥구 동백3로11번길 9, 201호 (중동)","name":"24시 블레스동물메디컬센터","latitude":37.269701,"longitude":127.1529584},"858":{"tel":"457-2220","location":"서울특별시 광진구 뚝섬로 541 (자양동)","name":"준동물병원","latitude":37.5349245,"longitude":127.0703884},"859":{"tel":"418-7582","location":"경기도 안산시 단원구 선부로 231 (와동)","name":"퍼피캣 동물병원","latitude":37.3416588,"longitude":126.8207717},"860":{"tel":"02-861-7582","location":"서울특별시 관악구 시흥대로 552-1 (신림동)","name":"고려동물병원","latitude":37.4822598,"longitude":126.9015042},"861":{"tel":"031-275-6549","location":"경기도 용인시 기흥구 마북로 164, A동 1층 1,2호 (마북동, 테라스가든A빌딩)","name":"함께하는 동물병원","latitude":37.3039611,"longitude":127.1243238},"862":{"tel":"2694-8275","location":"서울특별시 양천구 신정이펜2로 22, 203호 (신정동, 신정프라자)","name":"구름동물병원","latitude":37.5129042,"longitude":126.8326138},"863":{"tel":"02-983-7000","location":"서울특별시 강북구 삼양로 252 (미아동)","name":"봉식동물병원","latitude":37.6258756,"longitude":127.0184925},"864":{"tel":"031-404-8566","location":"경기도 시흥시 월곶중앙로 87-1, 101호 (월곶동)","name":"윤슬동물병원","latitude":37.389712,"longitude":126.7356951},"865":{"tel":"02-575-7999","location":"서울특별시 강남구 선릉로 225, 도곡렉슬아파트 상가동 109호 (도곡동)","name":"고려종합동물병원","latitude":37.4953163,"longitude":127.0526809},"866":{"tel":"805-2825","location":"서울특별시 금천구 시흥대로 276 (독산동)","name":"파랑새동물병원","latitude":37.4583223,"longitude":126.8995589},"867":{"tel":"942-4883","location":"서울특별시 성북구 길음로 33 (길음동, 길음뉴타운 제상가비동 제지2층 25호)","name":"카카오 N 동물병원","latitude":37.6075476,"longitude":127.017939},"868":{"tel":"031-903-3399","location":"경기도 고양시 일산동구 일산로286번길 7-7 (마두동)","name":"이솝동물병원","latitude":37.6617215,"longitude":126.7862783},"869":{"tel":"02-936-0907","location":"서울특별시 노원구 노원로 540 (상계동, 상계주공아파트 9단지상가)","name":"그린동물병원","latitude":37.6664624,"longitude":127.0802434},"870":{"tel":"032-325-7975","location":"경기도 부천시 조마루로105번길 8-6 (상동)","name":"우리앤동물병원","latitude":37.5002898,"longitude":126.7558756},"871":{"tel":"0314210008","location":"경기도 의왕시 포일로 11, 내손동 2층 (내손동)","name":"우리집동물병원","latitude":37.3886383,"longitude":126.974575},"872":{"tel":"031-876-7582","location":"경기도 의정부시 평화로 508, 1층 (의정부동)","name":"바라다동물병원","latitude":37.7374517,"longitude":127.0480051},"873":{"tel":"2603-0781","location":"서울특별시 강서구 강서로17길 20 (화곡동, 용봉동물병원)","name":"용봉동물병원","latitude":37.5330955,"longitude":126.8446175},"874":{"tel":"02-335-7577","location":"서울특별시 마포구 월드컵로 98 (서교동, 서현빌딩 1층)","name":"푸른숲 동물병원","latitude":37.5574007,"longitude":126.9092753},"875":{"tel":"02-878-9978","location":"서울특별시 관악구 봉천로 520, 3층 (봉천동)","name":"봉천현대동물병원","latitude":37.4794378,"longitude":126.9556998},"876":{"tel":"032-555-7582,","location":"인천광역시 계양구 봉오대로 785 (작전동, 이마트)","name":"쿨펫동물병원","latitude":37.531074,"longitude":126.7368985},"877":{"tel":"400-0075","location":"서울특별시 송파구 중대로 80, 문정프라자 (문정동)","name":"펫가든동물병원","latitude":37.4917426,"longitude":127.1177535},"878":{"tel":"02-6402-0301","location":"서울특별시 성동구 매봉길 13, 1층 420호 (옥수동, 래미안옥수리버젠상가)","name":"오석헌동물병원","latitude":37.5449681,"longitude":127.0138606},"879":{"tel":"031-773-3176","location":"경기도 양평군 용문면 용문로 353","name":"용문동물병원","latitude":37.4843111,"longitude":127.5931297},"880":{"tel":"031-574-1112","location":"경기도 남양주시 진접읍 금강로 1557, 101~103호","name":"진접솔동물병원","latitude":37.7297703,"longitude":127.1930326},"881":{"tel":"387-6920","location":"서울특별시 은평구 응암로 261 (응암동)","name":"응암동물병원","latitude":37.5952787,"longitude":126.9183499},"882":{"tel":"02-6403-1750","location":"서울특별시 강동구 천중로49길 4 (길동)","name":"사랑동물병원","latitude":37.5411898,"longitude":127.1430675},"883":{"tel":"468-7533","location":"인천광역시 남동구 만경로18번길 6 (만수동, 105호)","name":"신세계동물병원","latitude":37.456864,"longitude":126.727642},"884":{"tel":"031-771-7599","location":"경기도 양평군 양평읍 중앙로 93, 101,102호","name":"토마스동물병원","latitude":37.4945023,"longitude":127.4994836},"885":{"tel":"031-937-8225","location":"경기도 파주시 경의로 1114, 에펠타워 202,203호 (야당동)","name":"운정호수동물메디컬센터","latitude":37.7166251,"longitude":126.7603834},"886":{"tel":"02-969-7579","location":"서울특별시 동대문구 회기로18길 46 (회기동)","name":"봄봄동물병원","latitude":37.5903792,"longitude":127.054072},"887":{"tel":"031-533-5065","location":"경기도 포천시 신북면 호국로 2258","name":"라임동물병원","latitude":37.948604,"longitude":127.2376761},"888":{"tel":"781-7525","location":"경기도 성남시 분당구 장안로 39, 한일빌딩 102-2호 (분당동)","name":"활기찬동물병원","latitude":37.3704532,"longitude":127.1434443},"889":{"tel":"031-705-0175","location":"경기도 성남시 분당구 양현로94번길 19, 새남서울조합상가 202호 (이매동)","name":"분당우리동물의료센터","latitude":37.391196,"longitude":127.1261863},"890":{"tel":"031-8054-7582","location":"경기도 평택시 만세로 1842 (비전동)","name":"봄날동물의료센터","latitude":37.0048464,"longitude":127.1032566},"891":{"tel":"02-2664-8275","location":"서울특별시 강서구 강서로 282, 1층 (내발산동)","name":"우장산동물의료센터","latitude":37.5509433,"longitude":126.8366139},"892":{"tel":"031-362-4097","location":"경기도 안산시 단원구 원선1로 9, 센트럴포레상가 1층 (원곡동)","name":"온담동물의료센터","latitude":37.3242821,"longitude":126.8009993},"893":{"tel":"2619-0888","location":"서울특별시 구로구 개봉로 50 (개봉동)","name":"개명동물병원","latitude":37.4902014,"longitude":126.856298},"894":{"tel":"809-0075","location":"서울특별시 금천구 벚꽃로 30, 211호 (독산동, 금천롯데캐슬골드파크2차)","name":"금나래동물병원","latitude":37.4582428,"longitude":126.8941761},"895":{"tel":"031-211-0975","location":"경기도 수원시 팔달구 경수대로 461 (인계동)","name":"마음반려 동물의료원","latitude":37.26746,"longitude":127.0264128},"896":{"tel":"031-516-8585","location":"경기도 구리시 경춘로 294, 1층-3층 (수택동)","name":"24시 더케어 동물의료센터","latitude":37.6032914,"longitude":127.1473671},"897":{"tel":"752-7779","location":"경기도 성남시 중원구 성남대로 1126, 106호 (성남동, 매가프라자)","name":"모란동물병원","latitude":37.4303531,"longitude":127.1299003},"898":{"tel":"02-333-8632","location":"서울특별시 서대문구 연희로 132 (연희동)","name":"라파엘종합동물병원","latitude":37.5692338,"longitude":126.9330567},"899":{"tel":"437-7579","location":"서울특별시 중랑구 사가정로 363 (면목동)","name":"면목동물병원","latitude":37.5812193,"longitude":127.0849188},"900":{"tel":"0313737588","location":"경기도 화성시 동탄대로시범길 261, 리더스프라자 1층 102,103,104호 (청계동)","name":"뉴엘동물의료센터","latitude":37.2017391,"longitude":127.1022481},"901":{"tel":"02-855-8575","location":"서울특별시 금천구 시흥대로 483 (독산동)","name":"24시 글로리 동물병원","latitude":37.4767564,"longitude":126.8982881},"902":{"tel":"391-4575","location":"서울특별시 종로구 자하문로 293 (홍지동)","name":"북악동물병원","latitude":37.5989035,"longitude":126.9602525},"903":{"tel":"031-868-0275","location":"경기도 동두천시 평화로2169번길 21 (송내동)","name":"러브펫동물병원","latitude":37.8806794,"longitude":127.0529552},"904":{"tel":"031-766-3463","location":"경기도 광주시 태전동로 25, 퍼스트타워 1층 104호 (태전동)","name":"하하동물병원","latitude":37.3867741,"longitude":127.2344495},"905":{"tel":"712-0707","location":"경기도 성남시 분당구 미금로 48, 오성프라자 113호 (구미동)","name":"나라 동물병원","latitude":37.3378625,"longitude":127.116555},"906":{"tel":"2058-1882","location":"서울특별시 서초구 바우뫼로 211 (양재동)","name":"에이블 동물병원","latitude":37.4809239,"longitude":127.0416731},"907":{"tel":"02-885-2130","location":"서울특별시 관악구 봉천로 239, 1층 (봉천동)","name":"보라매동물병원","latitude":37.4895821,"longitude":126.9283692},"908":{"tel":"031-338-7588","location":"경기도 용인시 처인구 양지면 중부대로 2219","name":"양지종합동물병원","latitude":37.2335563,"longitude":127.2866615},"909":{"tel":"795-7523","location":"경기도 하남시 하남대로 809, 1층 (신장동, 경림빌딩)","name":"사랑동물병원","latitude":37.5409734,"longitude":127.2076072},"910":{"tel":"024247552","location":"서울특별시 송파구 석촌호수로 146, 1층 (삼전동)","name":"행복한 우리아이 동물병원","latitude":37.5068914,"longitude":127.0931858},"911":{"tel":"992-9414","location":"서울특별시 도봉구 덕릉로 230 (창동)","name":"신창동물병원","latitude":37.6414397,"longitude":127.0340481},"912":{"tel":"855-0275","location":"경기도 의정부시 녹양로 66 (녹양동)","name":"녹양동물병원","latitude":37.756853,"longitude":127.033373},"913":{"tel":"7107553","location":"인천광역시 서구 승학로 551, 동곡프라자 108호 (검암동)","name":"이오동물병원","latitude":37.5666261,"longitude":126.6807429},"914":{"tel":"02-384-3100","location":"서울특별시 은평구 진관3로 37, 은평구 뉴타운2지구 에코테라스 102호 (진관동)","name":"피움동물병원","latitude":37.6382,"longitude":126.9192369},"915":{"tel":"031-966-3328","location":"경기도 고양시 덕양구 도래울로 40, 201호 (도내동, 예승골드프라자)","name":"원흥동물의료센터","latitude":37.6293685,"longitude":126.8688138},"916":{"tel":"2666-5667","location":"서울특별시 강서구 양천로 72 (방화동, 해성빌딩)","name":"SKY동물병원","latitude":37.571003,"longitude":126.8163734},"917":{"tel":"2233-7574","location":"서울특별시 중구 다산로 107, 2층 (신당동)","name":"미래지동물의료센터","latitude":37.5536514,"longitude":127.0096732},"918":{"tel":"031-879-4650","location":"경기도 양주시 광적면 광적로 119","name":"김동물병원","latitude":37.8289793,"longitude":126.979628},"919":{"tel":"3665-5982","location":"서울특별시 강서구 강서로 333, 104호 105호 (내발산동)","name":"박동물병원","latitude":37.5554883,"longitude":126.8369246},"920":{"tel":"02-511-2842","location":"서울특별시 강남구 선릉로 756, 2층 (청담동, 대성빌딩)","name":"이비치 동물치과병원","latitude":37.522269,"longitude":127.0396837},"921":{"tel":"032-719-7533","location":"인천광역시 강화군 강화읍 강화대로 254-1","name":"디디동물병원","latitude":37.7411956,"longitude":126.5012366},"922":{"tel":"02-582-2186","location":"서울특별시 서초구 방배로34길 12 (방배동)","name":"남서울동물병원","latitude":37.4924481,"longitude":126.9916547},"923":{"tel":"0312117589","location":"경기도 수원시 영통구 센트럴파크로127번길 154, 1층 (이의동)","name":"라이언펫 수원광교동물병원","latitude":37.2940685,"longitude":127.0558743},"924":{"tel":"962-6049","location":"경기도 고양시 덕양구 마상로126번길 97, 3층 (주교동)","name":"원당동물병원","latitude":37.6565158,"longitude":126.8334325},"925":{"tel":"2282-3653","location":"서울특별시 성동구 독서당로 328 (금호동4가)","name":"펫365동물병원","latitude":37.5472951,"longitude":127.0170943},"926":{"tel":"0264546182","location":"서울특별시 성동구 왕십리로 241, 4층 (행당동, 서울숲 더샵)","name":"바우라움동물병원","latitude":37.5571543,"longitude":127.040105},"927":{"tel":"6959-8448","location":"서울특별시 양천구 남부순환로 421, 1층 (신월동)","name":"서서울호수동물병원","latitude":37.5302844,"longitude":126.8324093},"928":{"tel":"776-2524","location":"경기도 성남시 중원구 사기막골로 124, 비즈동 912호 (상대원동, SK테크노파크)","name":"엘앰시 동물병원","latitude":37.4400652,"longitude":127.1777194},"929":{"tel":"02-3158-0733","location":"경기도 고양시 덕양구 중앙로 136, 102호 (화전동)","name":"경서동물병원","latitude":37.6007791,"longitude":126.8729113},"930":{"tel":"382-7582","location":"서울특별시 은평구 은평로 208 (응암동)","name":"LOVE MY PET 동물병원","latitude":37.6010704,"longitude":126.9307693},"931":{"tel":"02-2690-7579","location":"서울특별시 양천구 지양로 7, 인산빌딩 1층 (신월동)","name":"해맞이 동물병원","latitude":37.5174327,"longitude":126.8377662},"932":{"tel":"031-474-2475","location":"경기도 안양시 만안구 경수대로 1234, 3층 301호 (석수동, 관악센터)","name":"24시마음든든동물병원","latitude":37.4184576,"longitude":126.9119},"933":{"tel":"031-755-5095","location":"경기도 성남시 중원구 성남대로 1110, 1층 (하대원동)","name":"서현 동물병원","latitude":37.4288398,"longitude":127.1298969},"934":{"tel":"992-0074","location":"서울특별시 도봉구 덕릉로 256 (창동)","name":"한빛동물병원","latitude":37.640193,"longitude":127.0398055},"935":{"tel":"6978-9500","location":"서울특별시 금천구 가산디지털2로 98, IT캐슬 2동 210호 (가산동)","name":"나비셀 동물의료센터","latitude":37.4768089,"longitude":126.8806159},"936":{"tel":"031-708-0078","location":"경기도 성남시 분당구 동판교로52번길 9-11 (백현동)","name":"힐링힐스 동물 치과병원","latitude":37.3873868,"longitude":127.1154836},"937":{"tel":"0315569008","location":"경기도 포천시 관인면 창동로 1841","name":"한별피그크리닉","latitude":38.156966,"longitude":127.2520656},"938":{"tel":"031-8055-8440","location":"경기도 화성시 동탄순환대로 708, 1동 204호 (영천동)","name":"파트너 동물의료센터","latitude":37.2079843,"longitude":127.1104215},"939":{"tel":"02-595-8875","location":"서울특별시 서초구 방배로 269, 109호 (방배동)","name":"한나동물병원","latitude":37.4966591,"longitude":126.9877048},"940":{"tel":"386-6092","location":"서울특별시 은평구 서오릉로 192 (갈현동)","name":"미래동물병원","latitude":37.6137942,"longitude":126.9123456},"941":{"tel":"3443-0275","location":"서울특별시 강남구 압구정로 108 (신사동, 덕산빌딩 203호 )","name":"압구정웰동물병원","latitude":37.5229251,"longitude":127.020598},"942":{"tel":"031-336-1245","location":"경기도 용인시 처인구 백암면 근창로 45","name":"백암동물병원","latitude":37.1631674,"longitude":127.37008},"943":{"tel":"02-419-1010","location":"서울특별시 송파구 올림픽로 145, 리센츠 상가동 1층 C13,C14호 (잠실동)","name":"리센츠 스타 동물병원","latitude":37.5119943,"longitude":127.0870561},"944":{"tel":"032-566-0038","location":"인천광역시 서구 승학로 245, 1층 (심곡동)","name":"도희동물병원","latitude":37.5445115,"longitude":126.6723501},"945":{"tel":"02-880-8661","location":"서울특별시 관악구 관악로 1 (신림동, 서울대학교)","name":"서울대학교 수의과대학 동물병원","latitude":37.46821,"longitude":126.9517672},"946":{"tel":"031-482-7585","location":"경기도 시흥시 동서로 1064 (조남동)","name":"목감동물병원","latitude":37.3838994,"longitude":126.8599424},"947":{"tel":"02-2643-2777","location":"서울특별시 양천구 등촌로 114, 목동한강팰리스 1층 (목동)","name":"가온동물병원","latitude":37.5401691,"longitude":126.8640851},"948":{"tel":"031-477-7275","location":"경기도 안양시 동안구 경수대로 472 (호계동, 영풍주상복합아파트상가 114호)","name":"김인천동물병원","latitude":37.3649817,"longitude":126.9592202},"949":{"tel":"02-2212-7596","location":"서울특별시 동대문구 답십리로 293, 1층 (장안동)","name":"현대종합동물병원","latitude":37.5725204,"longitude":127.0730771},"950":{"tel":"031-317-7234","location":"경기도 시흥시 승지로60번길 25, 111호 (능곡동,송죽센타프라자)","name":"능곡동물병원","latitude":37.3679899,"longitude":126.8122574},"951":{"tel":"02-927-7878","location":"서울특별시 성북구 아리랑로 27 (동소문동6가)","name":"로이동물병원","latitude":37.5953636,"longitude":127.0157775},"952":{"tel":"032-511-6836","location":"인천광역시 부평구 부평대로 138, 206~207호 (부평동)","name":"부평종합고양이의료센터","latitude":37.5037971,"longitude":126.7220018},"953":{"tel":"031-761-2259","location":"경기도 광주시 중앙로 96 (역동)","name":"협동동물병원","latitude":37.4084465,"longitude":127.2590731},"954":{"tel":"657-1062","location":"경기도 평택시 평택로 80 (평택동)","name":"맥동물병원","latitude":36.9940774,"longitude":127.0848731},"955":{"tel":"031-975-0187","location":"경기도 고양시 일산동구 탄중로 324 (중산동)","name":"참사랑","latitude":37.6931165,"longitude":126.7810346},"956":{"tel":"02-2233-6675","location":"서울특별시 중구 다산로36길 83, 1층 (신당동)","name":"신당 좋아요 동물병원","latitude":37.5605425,"longitude":127.0191179},"957":{"tel":"031-656-6166","location":"경기도 안성시 원곡면 덕봉서원로 201","name":"강산동물병원","latitude":37.0223857,"longitude":127.1732632},"958":{"tel":"02-889-0575","location":"서울특별시 관악구 남부순환로 1747-1 (봉천동)","name":"형제동물의료센터","latitude":37.4823957,"longitude":126.9441889},"959":{"tel":"028567582","location":"서울특별시 구로구 경인로 403, 원메디타운 2층 201호 (고척동)","name":"고척원동물의료센터","latitude":37.4980941,"longitude":126.8642226},"960":{"tel":"307-3335","location":"서울특별시 서대문구 응암로 117 (북가좌동)","name":"초콜릿종합동물병원","latitude":37.5831433,"longitude":126.9134746},"961":{"tel":"031-911-7585","location":"경기도 고양시 일산서구 하이파크2로 42 (덕이동)","name":"돌봄동물병원","latitude":37.6990684,"longitude":126.7539683},"962":{"tel":"02-2244-7479","location":"서울특별시 동대문구 사가정로 221 (장안동)","name":"박철환동물병원","latitude":37.5789274,"longitude":127.0697178},"963":{"tel":"031-971-5534","location":"경기도 고양시 덕양구 행신로 147 (행신동)","name":"행신동물병원","latitude":37.619381,"longitude":126.8316725},"964":{"tel":"031-243-0080","location":"경기도 수원시 장안구 팔달로 249 (영화동)","name":"나루동물메디칼","latitude":37.2886256,"longitude":127.012515},"965":{"tel":"914-5545","location":"서울특별시 성북구 정릉로 328, 1층 (정릉동)","name":"ZOO동물병원","latitude":37.6020179,"longitude":127.0195612},"966":{"tel":"261-8277","location":"경기도 용인시 수지구 문인로39번길 3-1 (풍덕천동)","name":"대학동물병원","latitude":37.3329136,"longitude":127.0984561},"967":{"tel":"031-672-7831","location":"경기도 안성시 일죽면 서동대로 7381-8","name":"발라드동물병원 (출장전문동물병원)","latitude":37.0892278,"longitude":127.4667387},"968":{"tel":"031-986-7588","location":"경기도 김포시 김포한강9로76번길 21, 109호 (구래동, 애플상가)","name":"늘봄동물병원","latitude":37.6443472,"longitude":126.6267963},"969":{"tel":"032-518-3800","location":"인천광역시 부평구 원적로 419(산곡동)","name":"조재진동물병원","latitude":37.5039296,"longitude":126.7130344},"970":{"tel":"02-6964-8276","location":"서울특별시 은평구 은평로 213 (녹번동)","name":"치유동물의료센터","latitude":37.6014336,"longitude":126.9313677},"971":{"tel":"833-0309","location":"서울특별시 영등포구 여의대방로35길 1(신길동)","name":"대방동물병원","latitude":37.501447,"longitude":126.920429},"972":{"tel":"031-391-7533","location":"경기도 군포시 고산로 242, 1층 (당동)","name":"군포굿닥터동물병원","latitude":37.3460786,"longitude":126.9456061},"973":{"tel":"031-295-7611","location":"경기도 수원시 팔달구 화산로 62 (화서동)","name":"서울경기양돈농협동물병원","latitude":37.2900978,"longitude":126.984683},"974":{"tel":"323-8275","location":"경기도 부천시 도약로 39 (상동)","name":"동물사랑병원","latitude":37.5125133,"longitude":126.7538953},"975":{"tel":"02-946-0011","location":"서울특별시 강북구 삼양로24길 19, 102동 110호 (미아동, 현대성우아파트)","name":"아이사랑동물병원","latitude":37.6172169,"longitude":127.02211},"976":{"tel":"031-693-8627","location":"경기도 용인시 기흥구 동백5로 21-11, 107호 (중동, 동백훼미리프라자 1)","name":"동백동물병원","latitude":37.277536,"longitude":127.1527797},"977":{"tel":"02-427-1076","location":"서울특별시 강동구 구천면로 664 (상일동)","name":"Dr.베토벤동물병원","latitude":37.5507767,"longitude":127.1717993},"978":{"tel":"031-667-8275","location":"경기도 평택시 송탄로 147, 태광 1층 (이충동)","name":"마음가득동물병원","latitude":37.0569124,"longitude":127.0589981},"979":{"tel":"593-7751","location":"경기도 남양주시 화도읍 창현로 47","name":"이규로동물병원","latitude":37.646617,"longitude":127.3054171},"980":{"tel":"984-0075","location":"서울특별시 성북구 삼양로4길 3 (길음동)","name":"강북 24시 N 동물의료센터","latitude":37.6058529,"longitude":127.024405},"981":{"tel":"655-3500","location":"경기도 부천시 부천로 69 (심곡동)","name":"가야동물병원","latitude":37.4905809,"longitude":126.7838886},"982":{"tel":"031-564-0075","location":"경기도 구리시 경춘로 128 (교문동)","name":"아마존동물병원","latitude":37.6006205,"longitude":127.1296032},"983":{"tel":"457-8575","location":"서울특별시 광진구 뚝섬로 622-1 (자양동)","name":"로엘동물병원","latitude":37.5320556,"longitude":127.0787938},"984":{"tel":"02-835-7572","location":"서울특별시 영등포구 신길로 70 (신길동)","name":"신풍동물종합병원","latitude":37.4986557,"longitude":126.9085678},"985":{"tel":"971-7585","location":"경기도 고양시 덕양구 화중로 66, 롯데마트 2층 (화정동)","name":"쿨펫동물병원","latitude":37.6329451,"longitude":126.8311447},"986":{"tel":"02-6951-1432","location":"경기도 광명시 금하로 464, 메이저리치안빌딩 2층 208호 (소하동)","name":"치료해주오","latitude":37.4484698,"longitude":126.8840568},"987":{"tel":"358-6151","location":"경기도 화성시 우정읍 조암북로57번길 1, 2층","name":"홍익동물병원","latitude":37.0863655,"longitude":126.8201952},"988":{"tel":"031-381-0166","location":"경기도 안양시 동안구 관악대로 167, 1층 (비산동, 비산 이편한세상 상가동)","name":"이룸동물병원","latitude":37.3999131,"longitude":126.942545},"989":{"tel":"031-246-1254","location":"경기도 수원시 장안구 장안로 67 (영화동)","name":"노아동물병원","latitude":37.2904043,"longitude":127.0032244},"990":{"tel":"419-7574","location":"경기도 안산시 상록구 오목로 78 (본오동,1층)","name":"공원애견동물병원","latitude":37.2900159,"longitude":126.8667085},"991":{"tel":"02-930-7161","location":"서울특별시 노원구 동일로 1626, 1층 (상계동)","name":"서정동물병원","latitude":37.6735791,"longitude":127.0558426},"992":{"tel":"031-772-3332","location":"경기도 양평군 양평읍 양근로 214","name":"양평가축병원","latitude":37.488344,"longitude":127.4918577},"993":{"tel":"02-414-7975","location":"서울특별시 송파구 송파대로 441, 청호빌딩 1층 2호 (석촌동)","name":"석촌동물병원","latitude":37.5058124,"longitude":127.1061944},"994":{"tel":"031-868-5061","location":"경기도 양주시 남면 화합로 583","name":"현대가축병원","latitude":37.8719088,"longitude":126.9943671},"995":{"tel":"912-0018","location":"서울특별시 성북구 화랑로 91 (하월곡동)","name":"비비펫 동물병원","latitude":37.6030025,"longitude":127.042155},"996":{"tel":"031-853-7550","location":"경기도 의정부시 부용로 187 (신곡동)","name":"하나동물병원","latitude":37.7514505,"longitude":127.077965},"997":{"tel":"031-334-7580","location":"경기도 용인시 처인구 모현읍 백옥대로 2362, 왕산태권도학원","name":"행복동물병원","latitude":37.3343958,"longitude":127.2492471},"998":{"tel":"031-962-0926","location":"경기도 고양시 일산동구 위시티로 24, 101호 (식사동)","name":"에드워드동물병원","latitude":37.6749103,"longitude":126.8082122},"999":{"tel":"0314947975","location":"경기도 안산시 단원구 화랑로 122, 상가2동 219-222호 (원곡동)","name":"안산 반함동물의료센터","latitude":37.3252085,"longitude":126.8003624}}